{"type":"FeatureCollection","features":[{"type":"Feature","id":"SCOOTERABSTELLOGD.146263","geometry":{"type":"Point","coordinates":[16.36409597,48.18956394]},"geometry_name":"SHAPE","properties":{"OBJECTID":146263,"ABSTELL_ID":127186,"BEZIRK":4,"ADRESSE":"Phorusgasse 4","STATUS":"R","STATUS_TXT":"realisiert","ANZ_SCOOTER":18,"WEBLINK1":null,"ANL_TYP":"SC","ANL_TYP_TXT":"Scooterabstellanlage"}},{"type":"Feature","id":"SCOOTERABSTELLOGD.146264","geometry":{"type":"Point","coordinates":[16.36406393,48.18959092]},"geometry_name":"SHAPE","properties":{"OBJECTID":146264,"ABSTELL_ID":127187,"BEZIRK":4,"ADRESSE":"Phorusgasse 4","STATUS":"R","STATUS_TXT":"realisiert","ANZ_SCOOTER":13,"WEBLINK1":null,"ANL_TYP":"SC","ANL_TYP_TXT":"Scooterabstellanlage"}},{"type":"Feature","id":"SCOOTERABSTELLOGD.146265","geometry":{"type":"Point","coordinates":[16.35529284,48.17610055]},"geometry_name":"SHAPE","properties":{"OBJECTID":146265,"ABSTELL_ID":128223,"BEZIRK":10,"ADRESSE":"Kundratstraße 4","STATUS":"R","STATUS_TXT":"realisiert","ANZ_SCOOTER":null,"WEBLINK1":null,"ANL_TYP":"BS","ANL_TYP_TXT":"Leih-E-Scooterabstellfläche"}},{"type":"Feature","id":"SCOOTERABSTELLOGD.146266","geometry":{"type":"Point","coordinates":[16.38469334,48.17845234]},"geometry_name":"SHAPE","properties":{"OBJECTID":146266,"ABSTELL_ID":128224,"BEZIRK":10,"ADRESSE":"Hlawkagasse 6","STATUS":"R","STATUS_TXT":"realisiert","ANZ_SCOOTER":null,"WEBLINK1":null,"ANL_TYP":"BS","ANL_TYP_TXT":"Leih-E-Scooterabstellfläche"}},{"type":"Feature","id":"SCOOTERABSTELLOGD.146267","geometry":{"type":"Point","coordinates":[16.37219242,48.17349653]},"geometry_name":"SHAPE","properties":{"OBJECTID":146267,"ABSTELL_ID":128225,"BEZIRK":10,"ADRESSE":"Arthaberplatz 17","STATUS":"R","STATUS_TXT":"realisiert","ANZ_SCOOTER":null,"WEBLINK1":null,"ANL_TYP":"BS","ANL_TYP_TXT":"Leih-E-Scooterabstellfläche"}},{"type":"Feature","id":"SCOOTERABSTELLOGD.146268","geometry":{"type":"Point","coordinates":[16.35478996,48.16850497]},"geometry_name":"SHAPE","properties":{"OBJECTID":146268,"ABSTELL_ID":128226,"BEZIRK":10,"ADRESSE":"Windtenstraße 2","STATUS":"R","STATUS_TXT":"realisiert","ANZ_SCOOTER":null,"WEBLINK1":null,"ANL_TYP":"BS","ANL_TYP_TXT":"Leih-E-Scooterabstellfläche"}},{"type":"Feature","id":"SCOOTERABSTELLOGD.146269","geometry":{"type":"Point","coordinates":[16.34831385,48.15434266]},"geometry_name":"SHAPE","properties":{"OBJECTID":146269,"ABSTELL_ID":128227,"BEZIRK":10,"ADRESSE":"Otto-Probst-Straße 20","STATUS":"R","STATUS_TXT":"realisiert","ANZ_SCOOTER":null,"WEBLINK1":null,"ANL_TYP":"BS","ANL_TYP_TXT":"Leih-E-Scooterabstellfläche"}},{"type":"Feature","id":"SCOOTERABSTELLOGD.146270","geometry":{"type":"Point","coordinates":[16.38391753,48.16091698]},"geometry_name":"SHAPE","properties":{"OBJECTID":146270,"ABSTELL_ID":128228,"BEZIRK":10,"ADRESSE":"Favoritenstraße ggü. 220","STATUS":"R","STATUS_TXT":"realisiert","ANZ_SCOOTER":null,"WEBLINK1":null,"ANL_TYP":"BS","ANL_TYP_TXT":"Leih-E-Scooterabstellfläche"}},{"type":"Feature","id":"SCOOTERABSTELLOGD.146271","geometry":{"type":"Point","coordinates":[16.38626542,48.16704672]},"geometry_name":"SHAPE","properties":{"OBJECTID":146271,"ABSTELL_ID":128229,"BEZIRK":10,"ADRESSE":"Absberggasse ggü. 53","STATUS":"R","STATUS_TXT":"realisiert","ANZ_SCOOTER":null,"WEBLINK1":null,"ANL_TYP":"BS","ANL_TYP_TXT":"Leih-E-Scooterabstellfläche"}},{"type":"Feature","id":"SCOOTERABSTELLOGD.146272","geometry":{"type":"Point","coordinates":[16.36795639,48.24850433]},"geometry_name":"SHAPE","properties":{"OBJECTID":146272,"ABSTELL_ID":128230,"BEZIRK":19,"ADRESSE":"Leopold-Ungar-Platz","STATUS":"R","STATUS_TXT":"realisiert","ANZ_SCOOTER":null,"WEBLINK1":null,"ANL_TYP":"BS","ANL_TYP_TXT":"Leih-E-Scooterabstellfläche"}},{"type":"Feature","id":"SCOOTERABSTELLOGD.146273","geometry":{"type":"Point","coordinates":[16.38967639,48.21103253]},"geometry_name":"SHAPE","properties":{"OBJECTID":146273,"ABSTELL_ID":128233,"BEZIRK":3,"ADRESSE":"Radetzkystraße 17","STATUS":"R","STATUS_TXT":"realisiert","ANZ_SCOOTER":null,"WEBLINK1":null,"ANL_TYP":"BS","ANL_TYP_TXT":"Leih-E-Scooterabstellfläche"}},{"type":"Feature","id":"SCOOTERABSTELLOGD.146274","geometry":{"type":"Point","coordinates":[16.33537621,48.17547208]},"geometry_name":"SHAPE","properties":{"OBJECTID":146274,"ABSTELL_ID":128427,"BEZIRK":12,"ADRESSE":"Eichenstraße 48","STATUS":"R","STATUS_TXT":"realisiert","ANZ_SCOOTER":null,"WEBLINK1":null,"ANL_TYP":"BS","ANL_TYP_TXT":"Leih-E-Scooterabstellfläche"}},{"type":"Feature","id":"SCOOTERABSTELLOGD.146275","geometry":{"type":"Point","coordinates":[16.32535845,48.2127603]},"geometry_name":"SHAPE","properties":{"OBJECTID":146275,"ABSTELL_ID":128428,"BEZIRK":16,"ADRESSE":"Ottakringer Platz ggü. 1","STATUS":"R","STATUS_TXT":"realisiert","ANZ_SCOOTER":null,"WEBLINK1":null,"ANL_TYP":"BS","ANL_TYP_TXT":"Leih-E-Scooterabstellfläche"}},{"type":"Feature","id":"SCOOTERABSTELLOGD.146276","geometry":{"type":"Point","coordinates":[16.33853622,48.22470106]},"geometry_name":"SHAPE","properties":{"OBJECTID":146276,"ABSTELL_ID":128429,"BEZIRK":18,"ADRESSE":"Leitermayergasse 46","STATUS":"R","STATUS_TXT":"realisiert","ANZ_SCOOTER":null,"WEBLINK1":null,"ANL_TYP":"BS","ANL_TYP_TXT":"Leih-E-Scooterabstellfläche"}},{"type":"Feature","id":"SCOOTERABSTELLOGD.146277","geometry":{"type":"Point","coordinates":[16.30846194,48.22622031]},"geometry_name":"SHAPE","properties":{"OBJECTID":146277,"ABSTELL_ID":128448,"BEZIRK":17,"ADRESSE":"Hernalser Hauptstraße 230","STATUS":"R","STATUS_TXT":"realisiert","ANZ_SCOOTER":null,"WEBLINK1":null,"ANL_TYP":"BS","ANL_TYP_TXT":"Leih-E-Scooterabstellfläche"}},{"type":"Feature","id":"SCOOTERABSTELLOGD.146278","geometry":{"type":"Point","coordinates":[16.31864075,48.21413736]},"geometry_name":"SHAPE","properties":{"OBJECTID":146278,"ABSTELL_ID":128450,"BEZIRK":16,"ADRESSE":"Familienplatz ggü. 1","STATUS":"R","STATUS_TXT":"realisiert","ANZ_SCOOTER":null,"WEBLINK1":null,"ANL_TYP":"BS","ANL_TYP_TXT":"Leih-E-Scooterabstellfläche"}},{"type":"Feature","id":"SCOOTERABSTELLOGD.146279","geometry":{"type":"Point","coordinates":[16.35664523,48.22039216]},"geometry_name":"SHAPE","properties":{"OBJECTID":146279,"ABSTELL_ID":128426,"BEZIRK":9,"ADRESSE":"Ehrenhaft-Steindler-Platz","STATUS":"R","STATUS_TXT":"realisiert","ANZ_SCOOTER":null,"WEBLINK1":null,"ANL_TYP":"BS","ANL_TYP_TXT":"Leih-E-Scooterabstellfläche"}},{"type":"Feature","id":"SCOOTERABSTELLOGD.146280","geometry":{"type":"Point","coordinates":[16.36462975,48.18248723]},"geometry_name":"SHAPE","properties":{"OBJECTID":146280,"ABSTELL_ID":128444,"BEZIRK":5,"ADRESSE":"Landgutgasse - Margaretengürtel","STATUS":"R","STATUS_TXT":"realisiert","ANZ_SCOOTER":null,"WEBLINK1":null,"ANL_TYP":"BS","ANL_TYP_TXT":"Leih-E-Scooterabstellfläche"}},{"type":"Feature","id":"SCOOTERABSTELLOGD.146281","geometry":{"type":"Point","coordinates":[16.31210121,48.21123355]},"geometry_name":"SHAPE","properties":{"OBJECTID":146281,"ABSTELL_ID":128449,"BEZIRK":16,"ADRESSE":"Hasnerstraße ggü. 124B","STATUS":"R","STATUS_TXT":"realisiert","ANZ_SCOOTER":null,"WEBLINK1":null,"ANL_TYP":"BS","ANL_TYP_TXT":"Leih-E-Scooterabstellfläche"}},{"type":"Feature","id":"SCOOTERABSTELLOGD.146282","geometry":{"type":"Point","coordinates":[16.3698316,48.25215879]},"geometry_name":"SHAPE","properties":{"OBJECTID":146282,"ABSTELL_ID":128451,"BEZIRK":19,"ADRESSE":"Muthgasse 62","STATUS":"R","STATUS_TXT":"realisiert","ANZ_SCOOTER":null,"WEBLINK1":null,"ANL_TYP":"BS","ANL_TYP_TXT":"Leih-E-Scooterabstellfläche"}},{"type":"Feature","id":"SCOOTERABSTELLOGD.146283","geometry":{"type":"Point","coordinates":[16.40445751,48.13760525]},"geometry_name":"SHAPE","properties":{"OBJECTID":146283,"ABSTELL_ID":127188,"BEZIRK":10,"ADRESSE":"Ober-Laaer Platz 1","STATUS":"R","STATUS_TXT":"realisiert","ANZ_SCOOTER":18,"WEBLINK1":null,"ANL_TYP":"SC","ANL_TYP_TXT":"Scooterabstellanlage"}},{"type":"Feature","id":"SCOOTERABSTELLOGD.146284","geometry":{"type":"Point","coordinates":[16.36456386,48.18848649]},"geometry_name":"SHAPE","properties":{"OBJECTID":146284,"ABSTELL_ID":127189,"BEZIRK":4,"ADRESSE":"Wiedner Hauptstraße 82","STATUS":"R","STATUS_TXT":"realisiert","ANZ_SCOOTER":13,"WEBLINK1":null,"ANL_TYP":"SC","ANL_TYP_TXT":"Scooterabstellanlage"}},{"type":"Feature","id":"SCOOTERABSTELLOGD.146285","geometry":{"type":"Point","coordinates":[16.36449178,48.18827595]},"geometry_name":"SHAPE","properties":{"OBJECTID":146285,"ABSTELL_ID":127190,"BEZIRK":4,"ADRESSE":"Wiedner Hauptstraße 82","STATUS":"R","STATUS_TXT":"realisiert","ANZ_SCOOTER":13,"WEBLINK1":null,"ANL_TYP":"SC","ANL_TYP_TXT":"Scooterabstellanlage"}},{"type":"Feature","id":"SCOOTERABSTELLOGD.146286","geometry":{"type":"Point","coordinates":[16.30274848,48.1965701]},"geometry_name":"SHAPE","properties":{"OBJECTID":146286,"ABSTELL_ID":128355,"BEZIRK":14,"ADRESSE":"Märzstraße 180","STATUS":"R","STATUS_TXT":"realisiert","ANZ_SCOOTER":46,"WEBLINK1":null,"ANL_TYP":"SC","ANL_TYP_TXT":"Scooterabstellanlage"}},{"type":"Feature","id":"SCOOTERABSTELLOGD.146287","geometry":{"type":"Point","coordinates":[16.38571206,48.21869579]},"geometry_name":"SHAPE","properties":{"OBJECTID":146287,"ABSTELL_ID":127204,"BEZIRK":2,"ADRESSE":"Novaragasse 30","STATUS":"R","STATUS_TXT":"realisiert","ANZ_SCOOTER":13,"WEBLINK1":null,"ANL_TYP":"SC","ANL_TYP_TXT":"Scooterabstellanlage"}},{"type":"Feature","id":"SCOOTERABSTELLOGD.146288","geometry":{"type":"Point","coordinates":[16.34155509,48.21083302]},"geometry_name":"SHAPE","properties":{"OBJECTID":146288,"ABSTELL_ID":127205,"BEZIRK":8,"ADRESSE":"Josefstädter Straße 93-97","STATUS":"R","STATUS_TXT":"realisiert","ANZ_SCOOTER":13,"WEBLINK1":null,"ANL_TYP":"SC","ANL_TYP_TXT":"Scooterabstellanlage"}},{"type":"Feature","id":"SCOOTERABSTELLOGD.146289","geometry":{"type":"Point","coordinates":[16.32566697,48.22168727]},"geometry_name":"SHAPE","properties":{"OBJECTID":146289,"ABSTELL_ID":128459,"BEZIRK":17,"ADRESSE":"Gschwandnergasse ggü. 60","STATUS":"R","STATUS_TXT":"realisiert","ANZ_SCOOTER":null,"WEBLINK1":null,"ANL_TYP":"BS","ANL_TYP_TXT":"Leih-E-Scooterabstellfläche"}},{"type":"Feature","id":"SCOOTERABSTELLOGD.146290","geometry":{"type":"Point","coordinates":[16.40207679,48.19291965]},"geometry_name":"SHAPE","properties":{"OBJECTID":146290,"ABSTELL_ID":128460,"BEZIRK":3,"ADRESSE":"Paulusplatz 9-11","STATUS":"R","STATUS_TXT":"realisiert","ANZ_SCOOTER":9,"WEBLINK1":null,"ANL_TYP":"SC","ANL_TYP_TXT":"Scooterabstellanlage"}},{"type":"Feature","id":"SCOOTERABSTELLOGD.146291","geometry":{"type":"Point","coordinates":[16.28051805,48.19753435]},"geometry_name":"SHAPE","properties":{"OBJECTID":146291,"ABSTELL_ID":128512,"BEZIRK":14,"ADRESSE":"Hütteldorfer Straße 293","STATUS":"R","STATUS_TXT":"realisiert","ANZ_SCOOTER":null,"WEBLINK1":null,"ANL_TYP":"BS","ANL_TYP_TXT":"Leih-E-Scooterabstellfläche"}},{"type":"Feature","id":"SCOOTERABSTELLOGD.146292","geometry":{"type":"Point","coordinates":[16.3485846,48.1896435]},"geometry_name":"SHAPE","properties":{"OBJECTID":146292,"ABSTELL_ID":128514,"BEZIRK":6,"ADRESSE":"Brückengasse 1","STATUS":"R","STATUS_TXT":"realisiert","ANZ_SCOOTER":null,"WEBLINK1":null,"ANL_TYP":"BS","ANL_TYP_TXT":"Leih-E-Scooterabstellfläche"}},{"type":"Feature","id":"SCOOTERABSTELLOGD.146293","geometry":{"type":"Point","coordinates":[16.30612506,48.22043796]},"geometry_name":"SHAPE","properties":{"OBJECTID":146293,"ABSTELL_ID":128515,"BEZIRK":16,"ADRESSE":"Nietzscheplatz ggü. 4","STATUS":"R","STATUS_TXT":"realisiert","ANZ_SCOOTER":null,"WEBLINK1":null,"ANL_TYP":"BS","ANL_TYP_TXT":"Leih-E-Scooterabstellfläche"}},{"type":"Feature","id":"SCOOTERABSTELLOGD.146294","geometry":{"type":"Point","coordinates":[16.34264286,48.22105223]},"geometry_name":"SHAPE","properties":{"OBJECTID":146294,"ABSTELL_ID":128517,"BEZIRK":18,"ADRESSE":"Antonigasse ggü. 4","STATUS":"R","STATUS_TXT":"realisiert","ANZ_SCOOTER":null,"WEBLINK1":null,"ANL_TYP":"BS","ANL_TYP_TXT":"Leih-E-Scooterabstellfläche"}},{"type":"Feature","id":"SCOOTERABSTELLOGD.146295","geometry":{"type":"Point","coordinates":[16.41126875,48.17896882]},"geometry_name":"SHAPE","properties":{"OBJECTID":146295,"ABSTELL_ID":128623,"BEZIRK":11,"ADRESSE":"Simmeringer Hauptstraße 48","STATUS":"R","STATUS_TXT":"realisiert","ANZ_SCOOTER":null,"WEBLINK1":null,"ANL_TYP":"BS","ANL_TYP_TXT":"Leih-E-Scooterabstellfläche"}},{"type":"Feature","id":"SCOOTERABSTELLOGD.146296","geometry":{"type":"Point","coordinates":[16.38890371,48.19159104]},"geometry_name":"SHAPE","properties":{"OBJECTID":146296,"ABSTELL_ID":127206,"BEZIRK":3,"ADRESSE":"Hegergasse 20","STATUS":"R","STATUS_TXT":"realisiert","ANZ_SCOOTER":null,"WEBLINK1":null,"ANL_TYP":"SC","ANL_TYP_TXT":"Scooterabstellanlage"}},{"type":"Feature","id":"SCOOTERABSTELLOGD.146297","geometry":{"type":"Point","coordinates":[16.42099964,48.22824481]},"geometry_name":"SHAPE","properties":{"OBJECTID":146297,"ABSTELL_ID":127207,"BEZIRK":22,"ADRESSE":"Schödlbergergasse 20","STATUS":"R","STATUS_TXT":"realisiert","ANZ_SCOOTER":18,"WEBLINK1":null,"ANL_TYP":"SC","ANL_TYP_TXT":"Scooterabstellanlage"}},{"type":"Feature","id":"SCOOTERABSTELLOGD.146298","geometry":{"type":"Point","coordinates":[16.32104453,48.18860466]},"geometry_name":"SHAPE","properties":{"OBJECTID":146298,"ABSTELL_ID":127208,"BEZIRK":15,"ADRESSE":"Siebeneichengasse 15","STATUS":"R","STATUS_TXT":"realisiert","ANZ_SCOOTER":13,"WEBLINK1":null,"ANL_TYP":"SC","ANL_TYP_TXT":"Scooterabstellanlage"}},{"type":"Feature","id":"SCOOTERABSTELLOGD.146299","geometry":{"type":"Point","coordinates":[16.36853956,48.18457961]},"geometry_name":"SHAPE","properties":{"OBJECTID":146299,"ABSTELL_ID":127209,"BEZIRK":4,"ADRESSE":"Wiedner Gürtel 68","STATUS":"R","STATUS_TXT":"realisiert","ANZ_SCOOTER":36,"WEBLINK1":null,"ANL_TYP":"SC","ANL_TYP_TXT":"Scooterabstellanlage"}},{"type":"Feature","id":"SCOOTERABSTELLOGD.146300","geometry":{"type":"Point","coordinates":[16.34085029,48.19870203]},"geometry_name":"SHAPE","properties":{"OBJECTID":146300,"ABSTELL_ID":127210,"BEZIRK":7,"ADRESSE":"Stollgasse 8A","STATUS":"R","STATUS_TXT":"realisiert","ANZ_SCOOTER":18,"WEBLINK1":null,"ANL_TYP":"SC","ANL_TYP_TXT":"Scooterabstellanlage"}},{"type":"Feature","id":"SCOOTERABSTELLOGD.146301","geometry":{"type":"Point","coordinates":[16.32091672,48.16259737]},"geometry_name":"SHAPE","properties":{"OBJECTID":146301,"ABSTELL_ID":127211,"BEZIRK":12,"ADRESSE":"Hetzendorfer Straße 11","STATUS":"R","STATUS_TXT":"realisiert","ANZ_SCOOTER":13,"WEBLINK1":null,"ANL_TYP":"SC","ANL_TYP_TXT":"Scooterabstellanlage"}},{"type":"Feature","id":"SCOOTERABSTELLOGD.146302","geometry":{"type":"Point","coordinates":[16.33139989,48.18562111]},"geometry_name":"SHAPE","properties":{"OBJECTID":146302,"ABSTELL_ID":127212,"BEZIRK":15,"ADRESSE":"Ortnergasse 4","STATUS":"R","STATUS_TXT":"realisiert","ANZ_SCOOTER":36,"WEBLINK1":null,"ANL_TYP":"SC","ANL_TYP_TXT":"Scooterabstellanlage"}},{"type":"Feature","id":"SCOOTERABSTELLOGD.146303","geometry":{"type":"Point","coordinates":[16.34401619,48.2095831]},"geometry_name":"SHAPE","properties":{"OBJECTID":146303,"ABSTELL_ID":127213,"BEZIRK":8,"ADRESSE":"Albertgasse 18-22","STATUS":"R","STATUS_TXT":"realisiert","ANZ_SCOOTER":13,"WEBLINK1":null,"ANL_TYP":"SC","ANL_TYP_TXT":"Scooterabstellanlage"}},{"type":"Feature","id":"SCOOTERABSTELLOGD.146304","geometry":{"type":"Point","coordinates":[16.27918329,48.14080527]},"geometry_name":"SHAPE","properties":{"OBJECTID":146304,"ABSTELL_ID":127214,"BEZIRK":23,"ADRESSE":"Anton-Krieger-Gasse 25","STATUS":"R","STATUS_TXT":"realisiert","ANZ_SCOOTER":12,"WEBLINK1":null,"ANL_TYP":"SC","ANL_TYP_TXT":"Scooterabstellanlage"}},{"type":"Feature","id":"SCOOTERABSTELLOGD.146305","geometry":{"type":"Point","coordinates":[16.39895829,48.19672861]},"geometry_name":"SHAPE","properties":{"OBJECTID":146305,"ABSTELL_ID":127215,"BEZIRK":3,"ADRESSE":"Lustgasse 13","STATUS":"R","STATUS_TXT":"realisiert","ANZ_SCOOTER":9,"WEBLINK1":null,"ANL_TYP":"SC","ANL_TYP_TXT":"Scooterabstellanlage"}},{"type":"Feature","id":"SCOOTERABSTELLOGD.146306","geometry":{"type":"Point","coordinates":[16.47277128,48.24618765]},"geometry_name":"SHAPE","properties":{"OBJECTID":146306,"ABSTELL_ID":127216,"BEZIRK":22,"ADRESSE":"Pastinakweg 10","STATUS":"R","STATUS_TXT":"realisiert","ANZ_SCOOTER":16,"WEBLINK1":null,"ANL_TYP":"SC","ANL_TYP_TXT":"Scooterabstellanlage"}},{"type":"Feature","id":"SCOOTERABSTELLOGD.146307","geometry":{"type":"Point","coordinates":[16.47282171,48.24623695]},"geometry_name":"SHAPE","properties":{"OBJECTID":146307,"ABSTELL_ID":127217,"BEZIRK":22,"ADRESSE":"Pastinakweg 10","STATUS":"R","STATUS_TXT":"realisiert","ANZ_SCOOTER":13,"WEBLINK1":null,"ANL_TYP":"SC","ANL_TYP_TXT":"Scooterabstellanlage"}},{"type":"Feature","id":"SCOOTERABSTELLOGD.146308","geometry":{"type":"Point","coordinates":[16.28866253,48.18627481]},"geometry_name":"SHAPE","properties":{"OBJECTID":146308,"ABSTELL_ID":127218,"BEZIRK":13,"ADRESSE":"Fichtnergasse 15","STATUS":"R","STATUS_TXT":"realisiert","ANZ_SCOOTER":13,"WEBLINK1":null,"ANL_TYP":"SC","ANL_TYP_TXT":"Scooterabstellanlage"}},{"type":"Feature","id":"SCOOTERABSTELLOGD.146309","geometry":{"type":"Point","coordinates":[16.28867786,48.18630266]},"geometry_name":"SHAPE","properties":{"OBJECTID":146309,"ABSTELL_ID":127219,"BEZIRK":13,"ADRESSE":"Fichtnergasse 15","STATUS":"R","STATUS_TXT":"realisiert","ANZ_SCOOTER":13,"WEBLINK1":null,"ANL_TYP":"SC","ANL_TYP_TXT":"Scooterabstellanlage"}},{"type":"Feature","id":"SCOOTERABSTELLOGD.146310","geometry":{"type":"Point","coordinates":[16.32596462,48.1815485]},"geometry_name":"SHAPE","properties":{"OBJECTID":146310,"ABSTELL_ID":127220,"BEZIRK":12,"ADRESSE":"Rosasgasse 1-3","STATUS":"R","STATUS_TXT":"realisiert","ANZ_SCOOTER":13,"WEBLINK1":null,"ANL_TYP":"SC","ANL_TYP_TXT":"Scooterabstellanlage"}},{"type":"Feature","id":"SCOOTERABSTELLOGD.146311","geometry":{"type":"Point","coordinates":[16.3439144,48.21038567]},"geometry_name":"SHAPE","properties":{"OBJECTID":146311,"ABSTELL_ID":128234,"BEZIRK":8,"ADRESSE":"Albertgasse 25","STATUS":"R","STATUS_TXT":"realisiert","ANZ_SCOOTER":null,"WEBLINK1":null,"ANL_TYP":"BS","ANL_TYP_TXT":"Leih-E-Scooterabstellfläche"}},{"type":"Feature","id":"SCOOTERABSTELLOGD.146312","geometry":{"type":"Point","coordinates":[16.38456098,48.2419177]},"geometry_name":"SHAPE","properties":{"OBJECTID":146312,"ABSTELL_ID":128237,"BEZIRK":20,"ADRESSE":"Maria-Restituta-Platz","STATUS":"R","STATUS_TXT":"realisiert","ANZ_SCOOTER":null,"WEBLINK1":null,"ANL_TYP":"BS","ANL_TYP_TXT":"Leih-E-Scooterabstellfläche"}},{"type":"Feature","id":"SCOOTERABSTELLOGD.146313","geometry":{"type":"Point","coordinates":[16.36625689,48.21914088]},"geometry_name":"SHAPE","properties":{"OBJECTID":146313,"ABSTELL_ID":128238,"BEZIRK":9,"ADRESSE":"Berggasse 34","STATUS":"R","STATUS_TXT":"realisiert","ANZ_SCOOTER":null,"WEBLINK1":null,"ANL_TYP":"BS","ANL_TYP_TXT":"Leih-E-Scooterabstellfläche"}},{"type":"Feature","id":"SCOOTERABSTELLOGD.146314","geometry":{"type":"Point","coordinates":[16.34385513,48.18841472]},"geometry_name":"SHAPE","properties":{"OBJECTID":146314,"ABSTELL_ID":128239,"BEZIRK":5,"ADRESSE":"Wackenroderbrücke","STATUS":"R","STATUS_TXT":"realisiert","ANZ_SCOOTER":null,"WEBLINK1":null,"ANL_TYP":"BS","ANL_TYP_TXT":"Leih-E-Scooterabstellfläche"}},{"type":"Feature","id":"SCOOTERABSTELLOGD.146315","geometry":{"type":"Point","coordinates":[16.31992873,48.21779438]},"geometry_name":"SHAPE","properties":{"OBJECTID":146315,"ABSTELL_ID":128480,"BEZIRK":16,"ADRESSE":"Wattgasse 45","STATUS":"R","STATUS_TXT":"realisiert","ANZ_SCOOTER":null,"WEBLINK1":null,"ANL_TYP":"BS","ANL_TYP_TXT":"Leih-E-Scooterabstellfläche"}},{"type":"Feature","id":"SCOOTERABSTELLOGD.146316","geometry":{"type":"Point","coordinates":[16.35008116,48.21495092]},"geometry_name":"SHAPE","properties":{"OBJECTID":146316,"ABSTELL_ID":128486,"BEZIRK":8,"ADRESSE":"Alser Straße 25","STATUS":"R","STATUS_TXT":"realisiert","ANZ_SCOOTER":null,"WEBLINK1":null,"ANL_TYP":"BS","ANL_TYP_TXT":"Leih-E-Scooterabstellfläche"}},{"type":"Feature","id":"SCOOTERABSTELLOGD.146317","geometry":{"type":"Point","coordinates":[16.37922096,48.21162346]},"geometry_name":"SHAPE","properties":{"OBJECTID":146317,"ABSTELL_ID":128494,"BEZIRK":1,"ADRESSE":"Franz-Josefs-Kai - Schwedenbrücke","STATUS":"R","STATUS_TXT":"realisiert","ANZ_SCOOTER":null,"WEBLINK1":null,"ANL_TYP":"BS","ANL_TYP_TXT":"Leih-E-Scooterabstellfläche"}},{"type":"Feature","id":"SCOOTERABSTELLOGD.146318","geometry":{"type":"Point","coordinates":[16.33923713,48.2123215]},"geometry_name":"SHAPE","properties":{"OBJECTID":146318,"ABSTELL_ID":128495,"BEZIRK":17,"ADRESSE":"Hernalser Gürtel ggü. 1","STATUS":"R","STATUS_TXT":"realisiert","ANZ_SCOOTER":null,"WEBLINK1":null,"ANL_TYP":"BS","ANL_TYP_TXT":"Leih-E-Scooterabstellfläche"}},{"type":"Feature","id":"SCOOTERABSTELLOGD.146319","geometry":{"type":"Point","coordinates":[16.21197928,48.21069266]},"geometry_name":"SHAPE","properties":{"OBJECTID":146319,"ABSTELL_ID":128499,"BEZIRK":14,"ADRESSE":"Herzmanskystraße 14","STATUS":"R","STATUS_TXT":"realisiert","ANZ_SCOOTER":null,"WEBLINK1":null,"ANL_TYP":"BS","ANL_TYP_TXT":"Leih-E-Scooterabstellfläche"}},{"type":"Feature","id":"SCOOTERABSTELLOGD.146320","geometry":{"type":"Point","coordinates":[16.3179369,48.19782814]},"geometry_name":"SHAPE","properties":{"OBJECTID":146320,"ABSTELL_ID":128500,"BEZIRK":15,"ADRESSE":"Meiselstraße 26","STATUS":"R","STATUS_TXT":"realisiert","ANZ_SCOOTER":null,"WEBLINK1":null,"ANL_TYP":"BS","ANL_TYP_TXT":"Leih-E-Scooterabstellfläche"}},{"type":"Feature","id":"SCOOTERABSTELLOGD.146321","geometry":{"type":"Point","coordinates":[16.33005291,48.19892206]},"geometry_name":"SHAPE","properties":{"OBJECTID":146321,"ABSTELL_ID":128501,"BEZIRK":15,"ADRESSE":"Pouthongasse 13","STATUS":"R","STATUS_TXT":"realisiert","ANZ_SCOOTER":null,"WEBLINK1":null,"ANL_TYP":"BS","ANL_TYP_TXT":"Leih-E-Scooterabstellfläche"}},{"type":"Feature","id":"SCOOTERABSTELLOGD.146322","geometry":{"type":"Point","coordinates":[16.37169499,48.23006611]},"geometry_name":"SHAPE","properties":{"OBJECTID":146322,"ABSTELL_ID":128577,"BEZIRK":20,"ADRESSE":"Wallensteinstraße 34","STATUS":"R","STATUS_TXT":"realisiert","ANZ_SCOOTER":null,"WEBLINK1":null,"ANL_TYP":"BS","ANL_TYP_TXT":"Leih-E-Scooterabstellfläche"}},{"type":"Feature","id":"SCOOTERABSTELLOGD.146323","geometry":{"type":"Point","coordinates":[16.30670657,48.20113452]},"geometry_name":"SHAPE","properties":{"OBJECTID":146323,"ABSTELL_ID":128318,"BEZIRK":14,"ADRESSE":"Muthsamgasse","STATUS":"R","STATUS_TXT":"realisiert","ANZ_SCOOTER":18,"WEBLINK1":null,"ANL_TYP":"SC","ANL_TYP_TXT":"Scooterabstellanlage"}},{"type":"Feature","id":"SCOOTERABSTELLOGD.146325","geometry":{"type":"Point","coordinates":[16.35888532,48.234047]},"geometry_name":"SHAPE","properties":{"OBJECTID":146325,"ABSTELL_ID":128350,"BEZIRK":9,"ADRESSE":"Bahnhof Spittelau","STATUS":"R","STATUS_TXT":"realisiert","ANZ_SCOOTER":null,"WEBLINK1":null,"ANL_TYP":"BS","ANL_TYP_TXT":"Leih-E-Scooterabstellfläche"}},{"type":"Feature","id":"SCOOTERABSTELLOGD.146326","geometry":{"type":"Point","coordinates":[16.34153074,48.21653175]},"geometry_name":"SHAPE","properties":{"OBJECTID":146326,"ABSTELL_ID":128351,"BEZIRK":17,"ADRESSE":"Hernalser Gürtel ggü. 43","STATUS":"R","STATUS_TXT":"realisiert","ANZ_SCOOTER":null,"WEBLINK1":null,"ANL_TYP":"BS","ANL_TYP_TXT":"Leih-E-Scooterabstellfläche"}},{"type":"Feature","id":"SCOOTERABSTELLOGD.146327","geometry":{"type":"Point","coordinates":[16.27516363,48.20320731]},"geometry_name":"SHAPE","properties":{"OBJECTID":146327,"ABSTELL_ID":128497,"BEZIRK":14,"ADRESSE":"Flötzersteig 179","STATUS":"R","STATUS_TXT":"realisiert","ANZ_SCOOTER":null,"WEBLINK1":null,"ANL_TYP":"BS","ANL_TYP_TXT":"Leih-E-Scooterabstellfläche"}},{"type":"Feature","id":"SCOOTERABSTELLOGD.146328","geometry":{"type":"Point","coordinates":[16.27908982,48.20396219]},"geometry_name":"SHAPE","properties":{"OBJECTID":146328,"ABSTELL_ID":128498,"BEZIRK":14,"ADRESSE":"Flötzersteig Höhe Waidhausenstraße","STATUS":"R","STATUS_TXT":"realisiert","ANZ_SCOOTER":null,"WEBLINK1":null,"ANL_TYP":"BS","ANL_TYP_TXT":"Leih-E-Scooterabstellfläche"}},{"type":"Feature","id":"SCOOTERABSTELLOGD.146329","geometry":{"type":"Point","coordinates":[16.32746159,48.19764616]},"geometry_name":"SHAPE","properties":{"OBJECTID":146329,"ABSTELL_ID":128502,"BEZIRK":15,"ADRESSE":"Stättermayergasse 21","STATUS":"R","STATUS_TXT":"realisiert","ANZ_SCOOTER":null,"WEBLINK1":null,"ANL_TYP":"BS","ANL_TYP_TXT":"Leih-E-Scooterabstellfläche"}},{"type":"Feature","id":"SCOOTERABSTELLOGD.146330","geometry":{"type":"Point","coordinates":[16.30729816,48.20076804]},"geometry_name":"SHAPE","properties":{"OBJECTID":146330,"ABSTELL_ID":128505,"BEZIRK":14,"ADRESSE":"Spallartgasse ggü. 17","STATUS":"R","STATUS_TXT":"realisiert","ANZ_SCOOTER":null,"WEBLINK1":null,"ANL_TYP":"BS","ANL_TYP_TXT":"Leih-E-Scooterabstellfläche"}},{"type":"Feature","id":"SCOOTERABSTELLOGD.146331","geometry":{"type":"Point","coordinates":[16.32568812,48.18156025]},"geometry_name":"SHAPE","properties":{"OBJECTID":146331,"ABSTELL_ID":127221,"BEZIRK":12,"ADRESSE":"Rosasgasse 1-3","STATUS":"R","STATUS_TXT":"realisiert","ANZ_SCOOTER":13,"WEBLINK1":null,"ANL_TYP":"SC","ANL_TYP_TXT":"Scooterabstellanlage"}},{"type":"Feature","id":"SCOOTERABSTELLOGD.146332","geometry":{"type":"Point","coordinates":[16.32644999,48.18152787]},"geometry_name":"SHAPE","properties":{"OBJECTID":146332,"ABSTELL_ID":127222,"BEZIRK":12,"ADRESSE":"Rosasgasse 1-3","STATUS":"R","STATUS_TXT":"realisiert","ANZ_SCOOTER":13,"WEBLINK1":null,"ANL_TYP":"SC","ANL_TYP_TXT":"Scooterabstellanlage"}},{"type":"Feature","id":"SCOOTERABSTELLOGD.146333","geometry":{"type":"Point","coordinates":[16.32672418,48.18151602]},"geometry_name":"SHAPE","properties":{"OBJECTID":146333,"ABSTELL_ID":127223,"BEZIRK":12,"ADRESSE":"Rosasgasse 1-3","STATUS":"R","STATUS_TXT":"realisiert","ANZ_SCOOTER":13,"WEBLINK1":null,"ANL_TYP":"SC","ANL_TYP_TXT":"Scooterabstellanlage"}},{"type":"Feature","id":"SCOOTERABSTELLOGD.146334","geometry":{"type":"Point","coordinates":[16.38957254,48.23447034]},"geometry_name":"SHAPE","properties":{"OBJECTID":146334,"ABSTELL_ID":127226,"BEZIRK":20,"ADRESSE":"Vorgartenstraße 95-97","STATUS":"R","STATUS_TXT":"realisiert","ANZ_SCOOTER":13,"WEBLINK1":null,"ANL_TYP":"SC","ANL_TYP_TXT":"Scooterabstellanlage"}},{"type":"Feature","id":"SCOOTERABSTELLOGD.146335","geometry":{"type":"Point","coordinates":[16.38954516,48.23449371]},"geometry_name":"SHAPE","properties":{"OBJECTID":146335,"ABSTELL_ID":127227,"BEZIRK":20,"ADRESSE":"Vorgartenstraße 95-97","STATUS":"R","STATUS_TXT":"realisiert","ANZ_SCOOTER":13,"WEBLINK1":null,"ANL_TYP":"SC","ANL_TYP_TXT":"Scooterabstellanlage"}},{"type":"Feature","id":"SCOOTERABSTELLOGD.146336","geometry":{"type":"Point","coordinates":[16.38959992,48.23444697]},"geometry_name":"SHAPE","properties":{"OBJECTID":146336,"ABSTELL_ID":127228,"BEZIRK":20,"ADRESSE":"Vorgartenstraße 95-97","STATUS":"R","STATUS_TXT":"realisiert","ANZ_SCOOTER":13,"WEBLINK1":null,"ANL_TYP":"SC","ANL_TYP_TXT":"Scooterabstellanlage"}},{"type":"Feature","id":"SCOOTERABSTELLOGD.146337","geometry":{"type":"Point","coordinates":[16.32469796,48.23382641]},"geometry_name":"SHAPE","properties":{"OBJECTID":146337,"ABSTELL_ID":127229,"BEZIRK":18,"ADRESSE":"Bischof-Faber-Platz 1","STATUS":"R","STATUS_TXT":"realisiert","ANZ_SCOOTER":18,"WEBLINK1":null,"ANL_TYP":"SC","ANL_TYP_TXT":"Scooterabstellanlage"}},{"type":"Feature","id":"SCOOTERABSTELLOGD.146338","geometry":{"type":"Point","coordinates":[16.42096547,48.22827024]},"geometry_name":"SHAPE","properties":{"OBJECTID":146338,"ABSTELL_ID":127230,"BEZIRK":22,"ADRESSE":"Schödlbergergasse 20","STATUS":"R","STATUS_TXT":"realisiert","ANZ_SCOOTER":13,"WEBLINK1":null,"ANL_TYP":"SC","ANL_TYP_TXT":"Scooterabstellanlage"}},{"type":"Feature","id":"SCOOTERABSTELLOGD.146339","geometry":{"type":"Point","coordinates":[16.32750625,48.17640536]},"geometry_name":"SHAPE","properties":{"OBJECTID":146339,"ABSTELL_ID":127231,"BEZIRK":12,"ADRESSE":"Erlgasse 32-34","STATUS":"R","STATUS_TXT":"realisiert","ANZ_SCOOTER":13,"WEBLINK1":null,"ANL_TYP":"SC","ANL_TYP_TXT":"Scooterabstellanlage"}},{"type":"Feature","id":"SCOOTERABSTELLOGD.146340","geometry":{"type":"Point","coordinates":[16.34124995,48.20598236]},"geometry_name":"SHAPE","properties":{"OBJECTID":146340,"ABSTELL_ID":127232,"BEZIRK":7,"ADRESSE":"Neustiftgasse 100","STATUS":"R","STATUS_TXT":"realisiert","ANZ_SCOOTER":13,"WEBLINK1":null,"ANL_TYP":"SC","ANL_TYP_TXT":"Scooterabstellanlage"}},{"type":"Feature","id":"SCOOTERABSTELLOGD.146341","geometry":{"type":"Point","coordinates":[16.36158483,48.20158187]},"geometry_name":"SHAPE","properties":{"OBJECTID":146341,"ABSTELL_ID":127233,"BEZIRK":6,"ADRESSE":"Rahlgasse 4","STATUS":"R","STATUS_TXT":"realisiert","ANZ_SCOOTER":13,"WEBLINK1":null,"ANL_TYP":"SC","ANL_TYP_TXT":"Scooterabstellanlage"}},{"type":"Feature","id":"SCOOTERABSTELLOGD.146343","geometry":{"type":"Point","coordinates":[16.35467461,48.18860096]},"geometry_name":"SHAPE","properties":{"OBJECTID":146343,"ABSTELL_ID":127235,"BEZIRK":5,"ADRESSE":"Pannaschgasse 6","STATUS":"R","STATUS_TXT":"realisiert","ANZ_SCOOTER":26,"WEBLINK1":null,"ANL_TYP":"SC","ANL_TYP_TXT":"Scooterabstellanlage"}},{"type":"Feature","id":"SCOOTERABSTELLOGD.146344","geometry":{"type":"Point","coordinates":[16.38387098,48.19804973]},"geometry_name":"SHAPE","properties":{"OBJECTID":146344,"ABSTELL_ID":127236,"BEZIRK":3,"ADRESSE":"Reisnerstraße 43","STATUS":"R","STATUS_TXT":"realisiert","ANZ_SCOOTER":18,"WEBLINK1":null,"ANL_TYP":"SC","ANL_TYP_TXT":"Scooterabstellanlage"}},{"type":"Feature","id":"SCOOTERABSTELLOGD.146345","geometry":{"type":"Point","coordinates":[16.36516094,48.22297545]},"geometry_name":"SHAPE","properties":{"OBJECTID":146345,"ABSTELL_ID":128287,"BEZIRK":9,"ADRESSE":"Hahngasse 35","STATUS":"R","STATUS_TXT":"realisiert","ANZ_SCOOTER":13,"WEBLINK1":null,"ANL_TYP":"SC","ANL_TYP_TXT":"Scooterabstellanlage"}},{"type":"Feature","id":"SCOOTERABSTELLOGD.146346","geometry":{"type":"Point","coordinates":[16.33389378,48.18479925]},"geometry_name":"SHAPE","properties":{"OBJECTID":146346,"ABSTELL_ID":128365,"BEZIRK":15,"ADRESSE":"Linke Wienzeile 224","STATUS":"R","STATUS_TXT":"realisiert","ANZ_SCOOTER":null,"WEBLINK1":null,"ANL_TYP":"BS","ANL_TYP_TXT":"Leih-E-Scooterabstellfläche"}},{"type":"Feature","id":"SCOOTERABSTELLOGD.146347","geometry":{"type":"Point","coordinates":[16.30550845,48.19839102]},"geometry_name":"SHAPE","properties":{"OBJECTID":146347,"ABSTELL_ID":128504,"BEZIRK":14,"ADRESSE":"Missindorfstraße 41","STATUS":"R","STATUS_TXT":"realisiert","ANZ_SCOOTER":null,"WEBLINK1":null,"ANL_TYP":"BS","ANL_TYP_TXT":"Leih-E-Scooterabstellfläche"}},{"type":"Feature","id":"SCOOTERABSTELLOGD.146348","geometry":{"type":"Point","coordinates":[16.27213015,48.1988763]},"geometry_name":"SHAPE","properties":{"OBJECTID":146348,"ABSTELL_ID":128506,"BEZIRK":14,"ADRESSE":"Hütteldorfer Straße ggü. 280","STATUS":"R","STATUS_TXT":"realisiert","ANZ_SCOOTER":null,"WEBLINK1":null,"ANL_TYP":"BS","ANL_TYP_TXT":"Leih-E-Scooterabstellfläche"}},{"type":"Feature","id":"SCOOTERABSTELLOGD.146349","geometry":{"type":"Point","coordinates":[16.22219896,48.2100703]},"geometry_name":"SHAPE","properties":{"OBJECTID":146349,"ABSTELL_ID":128507,"BEZIRK":14,"ADRESSE":"Pevetzgasse ggü. 1","STATUS":"R","STATUS_TXT":"realisiert","ANZ_SCOOTER":null,"WEBLINK1":null,"ANL_TYP":"BS","ANL_TYP_TXT":"Leih-E-Scooterabstellfläche"}},{"type":"Feature","id":"SCOOTERABSTELLOGD.146350","geometry":{"type":"Point","coordinates":[16.37351095,48.21794754]},"geometry_name":"SHAPE","properties":{"OBJECTID":146350,"ABSTELL_ID":128509,"BEZIRK":2,"ADRESSE":"Herminengasse 1","STATUS":"R","STATUS_TXT":"realisiert","ANZ_SCOOTER":null,"WEBLINK1":null,"ANL_TYP":"BS","ANL_TYP_TXT":"Leih-E-Scooterabstellfläche"}},{"type":"Feature","id":"SCOOTERABSTELLOGD.146351","geometry":{"type":"Point","coordinates":[16.31219602,48.21281561]},"geometry_name":"SHAPE","properties":{"OBJECTID":146351,"ABSTELL_ID":128510,"BEZIRK":16,"ADRESSE":"Paltaufgasse 21","STATUS":"R","STATUS_TXT":"realisiert","ANZ_SCOOTER":null,"WEBLINK1":null,"ANL_TYP":"BS","ANL_TYP_TXT":"Leih-E-Scooterabstellfläche"}},{"type":"Feature","id":"SCOOTERABSTELLOGD.146352","geometry":{"type":"Point","coordinates":[16.34882174,48.23617909]},"geometry_name":"SHAPE","properties":{"OBJECTID":146352,"ABSTELL_ID":128511,"BEZIRK":19,"ADRESSE":"Gymnasiumstraße 85","STATUS":"R","STATUS_TXT":"realisiert","ANZ_SCOOTER":null,"WEBLINK1":null,"ANL_TYP":"BS","ANL_TYP_TXT":"Leih-E-Scooterabstellfläche"}},{"type":"Feature","id":"SCOOTERABSTELLOGD.146353","geometry":{"type":"Point","coordinates":[16.33718452,48.22374116]},"geometry_name":"SHAPE","properties":{"OBJECTID":146353,"ABSTELL_ID":128513,"BEZIRK":18,"ADRESSE":"Johann-Nepomuk-Vogl-Platz 9A","STATUS":"R","STATUS_TXT":"realisiert","ANZ_SCOOTER":null,"WEBLINK1":null,"ANL_TYP":"BS","ANL_TYP_TXT":"Leih-E-Scooterabstellfläche"}},{"type":"Feature","id":"SCOOTERABSTELLOGD.146354","geometry":{"type":"Point","coordinates":[16.3187679,48.21081693]},"geometry_name":"SHAPE","properties":{"OBJECTID":146354,"ABSTELL_ID":128516,"BEZIRK":16,"ADRESSE":"Schuhmeierplatz ggü. 10","STATUS":"R","STATUS_TXT":"realisiert","ANZ_SCOOTER":null,"WEBLINK1":null,"ANL_TYP":"BS","ANL_TYP_TXT":"Leih-E-Scooterabstellfläche"}},{"type":"Feature","id":"SCOOTERABSTELLOGD.146355","geometry":{"type":"Point","coordinates":[16.33753219,48.2178296]},"geometry_name":"SHAPE","properties":{"OBJECTID":146355,"ABSTELL_ID":128518,"BEZIRK":17,"ADRESSE":"Syringgasse 1","STATUS":"R","STATUS_TXT":"realisiert","ANZ_SCOOTER":null,"WEBLINK1":null,"ANL_TYP":"BS","ANL_TYP_TXT":"Leih-E-Scooterabstellfläche"}},{"type":"Feature","id":"SCOOTERABSTELLOGD.146356","geometry":{"type":"Point","coordinates":[16.36932697,48.20733791]},"geometry_name":"SHAPE","properties":{"OBJECTID":146356,"ABSTELL_ID":128158,"BEZIRK":1,"ADRESSE":"Dorotheergasse 9","STATUS":"R","STATUS_TXT":"realisiert","ANZ_SCOOTER":null,"WEBLINK1":null,"ANL_TYP":"BS","ANL_TYP_TXT":"Leih-E-Scooterabstellfläche"}},{"type":"Feature","id":"SCOOTERABSTELLOGD.146357","geometry":{"type":"Point","coordinates":[16.34074585,48.20023239]},"geometry_name":"SHAPE","properties":{"OBJECTID":146357,"ABSTELL_ID":128159,"BEZIRK":7,"ADRESSE":"Kaiserstraße 35","STATUS":"R","STATUS_TXT":"realisiert","ANZ_SCOOTER":null,"WEBLINK1":null,"ANL_TYP":"BS","ANL_TYP_TXT":"Leih-E-Scooterabstellfläche"}},{"type":"Feature","id":"SCOOTERABSTELLOGD.146358","geometry":{"type":"Point","coordinates":[16.34096839,48.20031642]},"geometry_name":"SHAPE","properties":{"OBJECTID":146358,"ABSTELL_ID":128160,"BEZIRK":7,"ADRESSE":"Seidengasse 37","STATUS":"R","STATUS_TXT":"realisiert","ANZ_SCOOTER":null,"WEBLINK1":null,"ANL_TYP":"BS","ANL_TYP_TXT":"Leih-E-Scooterabstellfläche"}},{"type":"Feature","id":"SCOOTERABSTELLOGD.146359","geometry":{"type":"Point","coordinates":[16.34467168,48.2056754]},"geometry_name":"SHAPE","properties":{"OBJECTID":146359,"ABSTELL_ID":128161,"BEZIRK":7,"ADRESSE":"Neustiftgasse 105","STATUS":"R","STATUS_TXT":"realisiert","ANZ_SCOOTER":null,"WEBLINK1":null,"ANL_TYP":"BS","ANL_TYP_TXT":"Leih-E-Scooterabstellfläche"}},{"type":"Feature","id":"SCOOTERABSTELLOGD.146360","geometry":{"type":"Point","coordinates":[16.34746053,48.20551101]},"geometry_name":"SHAPE","properties":{"OBJECTID":146360,"ABSTELL_ID":128162,"BEZIRK":7,"ADRESSE":"Neustiftgasse 79","STATUS":"R","STATUS_TXT":"realisiert","ANZ_SCOOTER":null,"WEBLINK1":null,"ANL_TYP":"BS","ANL_TYP_TXT":"Leih-E-Scooterabstellfläche"}},{"type":"Feature","id":"SCOOTERABSTELLOGD.146361","geometry":{"type":"Point","coordinates":[16.32310592,48.19681675]},"geometry_name":"SHAPE","properties":{"OBJECTID":146361,"ABSTELL_ID":128163,"BEZIRK":15,"ADRESSE":"Märzstraße neben 70","STATUS":"R","STATUS_TXT":"realisiert","ANZ_SCOOTER":null,"WEBLINK1":null,"ANL_TYP":"BS","ANL_TYP_TXT":"Leih-E-Scooterabstellfläche"}},{"type":"Feature","id":"SCOOTERABSTELLOGD.146362","geometry":{"type":"Point","coordinates":[16.39032937,48.21850989]},"geometry_name":"SHAPE","properties":{"OBJECTID":146362,"ABSTELL_ID":128164,"BEZIRK":2,"ADRESSE":"Praterstern 9","STATUS":"R","STATUS_TXT":"realisiert","ANZ_SCOOTER":null,"WEBLINK1":null,"ANL_TYP":"BS","ANL_TYP_TXT":"Leih-E-Scooterabstellfläche"}},{"type":"Feature","id":"SCOOTERABSTELLOGD.146363","geometry":{"type":"Point","coordinates":[16.3350855,48.22862413]},"geometry_name":"SHAPE","properties":{"OBJECTID":146363,"ABSTELL_ID":128165,"BEZIRK":18,"ADRESSE":"Aumannplatz ggü. 2","STATUS":"R","STATUS_TXT":"realisiert","ANZ_SCOOTER":null,"WEBLINK1":null,"ANL_TYP":"BS","ANL_TYP_TXT":"Leih-E-Scooterabstellfläche"}},{"type":"Feature","id":"SCOOTERABSTELLOGD.146364","geometry":{"type":"Point","coordinates":[16.41430028,48.25311113]},"geometry_name":"SHAPE","properties":{"OBJECTID":146364,"ABSTELL_ID":128167,"BEZIRK":21,"ADRESSE":"Donaufelder Straße 46","STATUS":"R","STATUS_TXT":"realisiert","ANZ_SCOOTER":null,"WEBLINK1":null,"ANL_TYP":"BS","ANL_TYP_TXT":"Leih-E-Scooterabstellfläche"}},{"type":"Feature","id":"SCOOTERABSTELLOGD.146365","geometry":{"type":"Point","coordinates":[16.3342219,48.23702808]},"geometry_name":"SHAPE","properties":{"OBJECTID":146365,"ABSTELL_ID":128168,"BEZIRK":18,"ADRESSE":"Peter-Jordan-Straße ggü. 78","STATUS":"R","STATUS_TXT":"realisiert","ANZ_SCOOTER":null,"WEBLINK1":null,"ANL_TYP":"BS","ANL_TYP_TXT":"Leih-E-Scooterabstellfläche"}},{"type":"Feature","id":"SCOOTERABSTELLOGD.146366","geometry":{"type":"Point","coordinates":[16.34466647,48.24440721]},"geometry_name":"SHAPE","properties":{"OBJECTID":146366,"ABSTELL_ID":128169,"BEZIRK":19,"ADRESSE":"Billrothstraße 75A","STATUS":"R","STATUS_TXT":"realisiert","ANZ_SCOOTER":null,"WEBLINK1":null,"ANL_TYP":"BS","ANL_TYP_TXT":"Leih-E-Scooterabstellfläche"}},{"type":"Feature","id":"SCOOTERABSTELLOGD.146367","geometry":{"type":"Point","coordinates":[16.41054228,48.27781405]},"geometry_name":"SHAPE","properties":{"OBJECTID":146367,"ABSTELL_ID":128170,"BEZIRK":21,"ADRESSE":"Kantnergasse ggü. 68","STATUS":"R","STATUS_TXT":"realisiert","ANZ_SCOOTER":null,"WEBLINK1":null,"ANL_TYP":"BS","ANL_TYP_TXT":"Leih-E-Scooterabstellfläche"}},{"type":"Feature","id":"SCOOTERABSTELLOGD.146368","geometry":{"type":"Point","coordinates":[16.35237008,48.19596371]},"geometry_name":"SHAPE","properties":{"OBJECTID":146368,"ABSTELL_ID":127237,"BEZIRK":6,"ADRESSE":"Kopernikusgasse 15","STATUS":"R","STATUS_TXT":"realisiert","ANZ_SCOOTER":13,"WEBLINK1":null,"ANL_TYP":"SC","ANL_TYP_TXT":"Scooterabstellanlage"}},{"type":"Feature","id":"SCOOTERABSTELLOGD.146369","geometry":{"type":"Point","coordinates":[16.33042318,48.20267959]},"geometry_name":"SHAPE","properties":{"OBJECTID":146369,"ABSTELL_ID":127238,"BEZIRK":15,"ADRESSE":"Burjanplatz 2","STATUS":"R","STATUS_TXT":"realisiert","ANZ_SCOOTER":13,"WEBLINK1":null,"ANL_TYP":"SC","ANL_TYP_TXT":"Scooterabstellanlage"}},{"type":"Feature","id":"SCOOTERABSTELLOGD.146370","geometry":{"type":"Point","coordinates":[16.33332863,48.19458287]},"geometry_name":"SHAPE","properties":{"OBJECTID":146370,"ABSTELL_ID":127239,"BEZIRK":15,"ADRESSE":"Friedrichsplatz 1","STATUS":"R","STATUS_TXT":"realisiert","ANZ_SCOOTER":13,"WEBLINK1":null,"ANL_TYP":"SC","ANL_TYP_TXT":"Scooterabstellanlage"}},{"type":"Feature","id":"SCOOTERABSTELLOGD.146371","geometry":{"type":"Point","coordinates":[16.33891092,48.20271722]},"geometry_name":"SHAPE","properties":{"OBJECTID":146371,"ABSTELL_ID":127240,"BEZIRK":7,"ADRESSE":"Kandlgasse 39-43","STATUS":"R","STATUS_TXT":"realisiert","ANZ_SCOOTER":18,"WEBLINK1":null,"ANL_TYP":"SC","ANL_TYP_TXT":"Scooterabstellanlage"}},{"type":"Feature","id":"SCOOTERABSTELLOGD.146372","geometry":{"type":"Point","coordinates":[16.30600727,48.21241746]},"geometry_name":"SHAPE","properties":{"OBJECTID":146372,"ABSTELL_ID":127241,"BEZIRK":16,"ADRESSE":"Maroltingergasse 69-71","STATUS":"R","STATUS_TXT":"realisiert","ANZ_SCOOTER":8,"WEBLINK1":null,"ANL_TYP":"SC","ANL_TYP_TXT":"Scooterabstellanlage"}},{"type":"Feature","id":"SCOOTERABSTELLOGD.146373","geometry":{"type":"Point","coordinates":[16.30608458,48.21264335]},"geometry_name":"SHAPE","properties":{"OBJECTID":146373,"ABSTELL_ID":127242,"BEZIRK":16,"ADRESSE":"Maroltingergasse 69-71","STATUS":"R","STATUS_TXT":"realisiert","ANZ_SCOOTER":8,"WEBLINK1":null,"ANL_TYP":"SC","ANL_TYP_TXT":"Scooterabstellanlage"}},{"type":"Feature","id":"SCOOTERABSTELLOGD.146374","geometry":{"type":"Point","coordinates":[16.33898526,48.22454454]},"geometry_name":"SHAPE","properties":{"OBJECTID":146374,"ABSTELL_ID":127243,"BEZIRK":18,"ADRESSE":"Schopenhauerstraße 49","STATUS":"R","STATUS_TXT":"realisiert","ANZ_SCOOTER":18,"WEBLINK1":null,"ANL_TYP":"SC","ANL_TYP_TXT":"Scooterabstellanlage"}},{"type":"Feature","id":"SCOOTERABSTELLOGD.146375","geometry":{"type":"Point","coordinates":[16.33893439,48.22456649]},"geometry_name":"SHAPE","properties":{"OBJECTID":146375,"ABSTELL_ID":127244,"BEZIRK":18,"ADRESSE":"Schopenhauerstraße 49","STATUS":"R","STATUS_TXT":"realisiert","ANZ_SCOOTER":18,"WEBLINK1":null,"ANL_TYP":"SC","ANL_TYP_TXT":"Scooterabstellanlage"}},{"type":"Feature","id":"SCOOTERABSTELLOGD.146376","geometry":{"type":"Point","coordinates":[16.33882921,48.22461201]},"geometry_name":"SHAPE","properties":{"OBJECTID":146376,"ABSTELL_ID":127245,"BEZIRK":18,"ADRESSE":"Schopenhauerstraße 49","STATUS":"R","STATUS_TXT":"realisiert","ANZ_SCOOTER":18,"WEBLINK1":null,"ANL_TYP":"SC","ANL_TYP_TXT":"Scooterabstellanlage"}},{"type":"Feature","id":"SCOOTERABSTELLOGD.146377","geometry":{"type":"Point","coordinates":[16.33872746,48.22465592]},"geometry_name":"SHAPE","properties":{"OBJECTID":146377,"ABSTELL_ID":127246,"BEZIRK":18,"ADRESSE":"Schopenhauerstraße 49","STATUS":"R","STATUS_TXT":"realisiert","ANZ_SCOOTER":18,"WEBLINK1":null,"ANL_TYP":"SC","ANL_TYP_TXT":"Scooterabstellanlage"}},{"type":"Feature","id":"SCOOTERABSTELLOGD.146378","geometry":{"type":"Point","coordinates":[16.33877833,48.22463396]},"geometry_name":"SHAPE","properties":{"OBJECTID":146378,"ABSTELL_ID":127247,"BEZIRK":18,"ADRESSE":"Schopenhauerstraße 49","STATUS":"R","STATUS_TXT":"realisiert","ANZ_SCOOTER":18,"WEBLINK1":null,"ANL_TYP":"SC","ANL_TYP_TXT":"Scooterabstellanlage"}},{"type":"Feature","id":"SCOOTERABSTELLOGD.146379","geometry":{"type":"Point","coordinates":[16.37808986,48.20662883]},"geometry_name":"SHAPE","properties":{"OBJECTID":146379,"ABSTELL_ID":127248,"BEZIRK":1,"ADRESSE":"Stubenbastei 5","STATUS":"R","STATUS_TXT":"realisiert","ANZ_SCOOTER":13,"WEBLINK1":null,"ANL_TYP":"SC","ANL_TYP_TXT":"Scooterabstellanlage"}},{"type":"Feature","id":"SCOOTERABSTELLOGD.146380","geometry":{"type":"Point","coordinates":[16.37807319,48.20663642]},"geometry_name":"SHAPE","properties":{"OBJECTID":146380,"ABSTELL_ID":127249,"BEZIRK":1,"ADRESSE":"Stubenbastei 5","STATUS":"R","STATUS_TXT":"realisiert","ANZ_SCOOTER":13,"WEBLINK1":null,"ANL_TYP":"SC","ANL_TYP_TXT":"Scooterabstellanlage"}},{"type":"Feature","id":"SCOOTERABSTELLOGD.146381","geometry":{"type":"Point","coordinates":[16.34447689,48.24045176]},"geometry_name":"SHAPE","properties":{"OBJECTID":146381,"ABSTELL_ID":127250,"BEZIRK":19,"ADRESSE":"Krottenbachstraße 11","STATUS":"R","STATUS_TXT":"realisiert","ANZ_SCOOTER":18,"WEBLINK1":null,"ANL_TYP":"SC","ANL_TYP_TXT":"Scooterabstellanlage"}},{"type":"Feature","id":"SCOOTERABSTELLOGD.146382","geometry":{"type":"Point","coordinates":[16.34456018,48.24045496]},"geometry_name":"SHAPE","properties":{"OBJECTID":146382,"ABSTELL_ID":127251,"BEZIRK":19,"ADRESSE":"Krottenbachstraße 11","STATUS":"R","STATUS_TXT":"realisiert","ANZ_SCOOTER":18,"WEBLINK1":null,"ANL_TYP":"SC","ANL_TYP_TXT":"Scooterabstellanlage"}},{"type":"Feature","id":"SCOOTERABSTELLOGD.146386","geometry":{"type":"Point","coordinates":[16.33534897,48.21799213]},"geometry_name":"SHAPE","properties":{"OBJECTID":146386,"ABSTELL_ID":128522,"BEZIRK":17,"ADRESSE":"Bergsteiggasse 31-33","STATUS":"R","STATUS_TXT":"realisiert","ANZ_SCOOTER":null,"WEBLINK1":null,"ANL_TYP":"BS","ANL_TYP_TXT":"Leih-E-Scooterabstellfläche"}},{"type":"Feature","id":"SCOOTERABSTELLOGD.146388","geometry":{"type":"Point","coordinates":[16.44738711,48.27190696]},"geometry_name":"SHAPE","properties":{"OBJECTID":146388,"ABSTELL_ID":128171,"BEZIRK":21,"ADRESSE":"Kürschnergasse 9","STATUS":"R","STATUS_TXT":"realisiert","ANZ_SCOOTER":null,"WEBLINK1":null,"ANL_TYP":"BS","ANL_TYP_TXT":"Leih-E-Scooterabstellfläche"}},{"type":"Feature","id":"SCOOTERABSTELLOGD.146389","geometry":{"type":"Point","coordinates":[16.43400708,48.24387913]},"geometry_name":"SHAPE","properties":{"OBJECTID":146389,"ABSTELL_ID":128173,"BEZIRK":22,"ADRESSE":"Dr.-Adolf-Schärf-Platz ggü. 8","STATUS":"R","STATUS_TXT":"realisiert","ANZ_SCOOTER":null,"WEBLINK1":null,"ANL_TYP":"BS","ANL_TYP_TXT":"Leih-E-Scooterabstellfläche"}},{"type":"Feature","id":"SCOOTERABSTELLOGD.146390","geometry":{"type":"Point","coordinates":[16.48427552,48.240507]},"geometry_name":"SHAPE","properties":{"OBJECTID":146390,"ABSTELL_ID":128174,"BEZIRK":22,"ADRESSE":"Pirquetgasse 10","STATUS":"R","STATUS_TXT":"realisiert","ANZ_SCOOTER":null,"WEBLINK1":null,"ANL_TYP":"BS","ANL_TYP_TXT":"Leih-E-Scooterabstellfläche"}},{"type":"Feature","id":"SCOOTERABSTELLOGD.148515","geometry":{"type":"Point","coordinates":[16.32737276,48.17625899]},"geometry_name":"SHAPE","properties":{"OBJECTID":148515,"ABSTELL_ID":128758,"BEZIRK":12,"ADRESSE":"Spittelbreitengasse 14","STATUS":"R","STATUS_TXT":"realisiert","ANZ_SCOOTER":13,"WEBLINK1":null,"ANL_TYP":"SC","ANL_TYP_TXT":"Scooterabstellanlage"}},{"type":"Feature","id":"SCOOTERABSTELLOGD.148516","geometry":{"type":"Point","coordinates":[16.40571807,48.21777521]},"geometry_name":"SHAPE","properties":{"OBJECTID":148516,"ABSTELL_ID":128708,"BEZIRK":2,"ADRESSE":"Ausstellungsstraße 44","STATUS":"R","STATUS_TXT":"realisiert","ANZ_SCOOTER":null,"WEBLINK1":null,"ANL_TYP":"BS","ANL_TYP_TXT":"Leih-E-Scooterabstellfläche"}},{"type":"Feature","id":"SCOOTERABSTELLOGD.148517","geometry":{"type":"Point","coordinates":[16.40461176,48.2150192]},"geometry_name":"SHAPE","properties":{"OBJECTID":148517,"ABSTELL_ID":128711,"BEZIRK":2,"ADRESSE":"Freudplatz 2","STATUS":"R","STATUS_TXT":"realisiert","ANZ_SCOOTER":null,"WEBLINK1":null,"ANL_TYP":"BS","ANL_TYP_TXT":"Leih-E-Scooterabstellfläche"}},{"type":"Feature","id":"SCOOTERABSTELLOGD.148518","geometry":{"type":"Point","coordinates":[16.32076605,48.18858662]},"geometry_name":"SHAPE","properties":{"OBJECTID":148518,"ABSTELL_ID":128663,"BEZIRK":15,"ADRESSE":"Siebeneichengasse 17","STATUS":"R","STATUS_TXT":"realisiert","ANZ_SCOOTER":null,"WEBLINK1":null,"ANL_TYP":"BS","ANL_TYP_TXT":"Leih-E-Scooterabstellfläche"}},{"type":"Feature","id":"SCOOTERABSTELLOGD.148521","geometry":{"type":"Point","coordinates":[16.38047826,48.1690621]},"geometry_name":"SHAPE","properties":{"OBJECTID":148521,"ABSTELL_ID":128642,"BEZIRK":10,"ADRESSE":"Favoritenstraße 159","STATUS":"R","STATUS_TXT":"realisiert","ANZ_SCOOTER":null,"WEBLINK1":null,"ANL_TYP":"BS","ANL_TYP_TXT":"Leih-E-Scooterabstellfläche"}},{"type":"Feature","id":"SCOOTERABSTELLOGD.148522","geometry":{"type":"Point","coordinates":[16.42040945,48.170368]},"geometry_name":"SHAPE","properties":{"OBJECTID":148522,"ABSTELL_ID":128643,"BEZIRK":11,"ADRESSE":"Simmeringer Hauptstraße 151","STATUS":"R","STATUS_TXT":"realisiert","ANZ_SCOOTER":null,"WEBLINK1":null,"ANL_TYP":"BS","ANL_TYP_TXT":"Leih-E-Scooterabstellfläche"}},{"type":"Feature","id":"SCOOTERABSTELLOGD.148523","geometry":{"type":"Point","coordinates":[16.44216782,48.15465779]},"geometry_name":"SHAPE","properties":{"OBJECTID":148523,"ABSTELL_ID":128644,"BEZIRK":11,"ADRESSE":"Simmeringer Hauptstraße 341","STATUS":"R","STATUS_TXT":"realisiert","ANZ_SCOOTER":null,"WEBLINK1":null,"ANL_TYP":"BS","ANL_TYP_TXT":"Leih-E-Scooterabstellfläche"}},{"type":"Feature","id":"SCOOTERABSTELLOGD.148524","geometry":{"type":"Point","coordinates":[16.38308944,48.22164604]},"geometry_name":"SHAPE","properties":{"OBJECTID":148524,"ABSTELL_ID":128646,"BEZIRK":2,"ADRESSE":"Josefinengasse 12","STATUS":"R","STATUS_TXT":"realisiert","ANZ_SCOOTER":null,"WEBLINK1":null,"ANL_TYP":"BS","ANL_TYP_TXT":"Leih-E-Scooterabstellfläche"}},{"type":"Feature","id":"SCOOTERABSTELLOGD.148525","geometry":{"type":"Point","coordinates":[16.41521193,48.17534871]},"geometry_name":"SHAPE","properties":{"OBJECTID":148525,"ABSTELL_ID":128624,"BEZIRK":11,"ADRESSE":"Simmeringer Hauptstraße 80-82","STATUS":"R","STATUS_TXT":"realisiert","ANZ_SCOOTER":null,"WEBLINK1":null,"ANL_TYP":"BS","ANL_TYP_TXT":"Leih-E-Scooterabstellfläche"}},{"type":"Feature","id":"SCOOTERABSTELLOGD.148526","geometry":{"type":"Point","coordinates":[16.36753399,48.25953011]},"geometry_name":"SHAPE","properties":{"OBJECTID":148526,"ABSTELL_ID":128629,"BEZIRK":19,"ADRESSE":"Heiligenstädter Straße  172","STATUS":"R","STATUS_TXT":"realisiert","ANZ_SCOOTER":null,"WEBLINK1":null,"ANL_TYP":"BS","ANL_TYP_TXT":"Leih-E-Scooterabstellfläche"}},{"type":"Feature","id":"SCOOTERABSTELLOGD.148527","geometry":{"type":"Point","coordinates":[16.42104041,48.16935384]},"geometry_name":"SHAPE","properties":{"OBJECTID":148527,"ABSTELL_ID":128630,"BEZIRK":11,"ADRESSE":"Simmeringer Hauptstraße 128","STATUS":"R","STATUS_TXT":"realisiert","ANZ_SCOOTER":null,"WEBLINK1":null,"ANL_TYP":"BS","ANL_TYP_TXT":"Leih-E-Scooterabstellfläche"}},{"type":"Feature","id":"SCOOTERABSTELLOGD.148528","geometry":{"type":"Point","coordinates":[16.34290997,48.18731088]},"geometry_name":"SHAPE","properties":{"OBJECTID":148528,"ABSTELL_ID":128637,"BEZIRK":5,"ADRESSE":"Schönbrunner Straße","STATUS":"R","STATUS_TXT":"realisiert","ANZ_SCOOTER":null,"WEBLINK1":null,"ANL_TYP":"BS","ANL_TYP_TXT":"Leih-E-Scooterabstellfläche"}},{"type":"Feature","id":"SCOOTERABSTELLOGD.148530","geometry":{"type":"Point","coordinates":[16.40466519,48.18860076]},"geometry_name":"SHAPE","properties":{"OBJECTID":148530,"ABSTELL_ID":129014,"BEZIRK":3,"ADRESSE":"Maria-Jacobi-Gasse 2","STATUS":"R","STATUS_TXT":"realisiert","ANZ_SCOOTER":null,"WEBLINK1":null,"ANL_TYP":"BS","ANL_TYP_TXT":"Leih-E-Scooterabstellfläche"}},{"type":"Feature","id":"SCOOTERABSTELLOGD.148531","geometry":{"type":"Point","coordinates":[16.37908997,48.20226716]},"geometry_name":"SHAPE","properties":{"OBJECTID":148531,"ABSTELL_ID":128816,"BEZIRK":3,"ADRESSE":"Johannesgasse ggü. 28","STATUS":"R","STATUS_TXT":"realisiert","ANZ_SCOOTER":null,"WEBLINK1":null,"ANL_TYP":"BS","ANL_TYP_TXT":"Leih-E-Scooterabstellfläche"}},{"type":"Feature","id":"SCOOTERABSTELLOGD.148532","geometry":{"type":"Point","coordinates":[16.33768089,48.19790468]},"geometry_name":"SHAPE","properties":{"OBJECTID":148532,"ABSTELL_ID":128827,"BEZIRK":15,"ADRESSE":"Felberstraße 1","STATUS":"R","STATUS_TXT":"realisiert","ANZ_SCOOTER":null,"WEBLINK1":null,"ANL_TYP":"BS","ANL_TYP_TXT":"Leih-E-Scooterabstellfläche"}},{"type":"Feature","id":"SCOOTERABSTELLOGD.148533","geometry":{"type":"Point","coordinates":[16.44034348,48.22711479]},"geometry_name":"SHAPE","properties":{"OBJECTID":148533,"ABSTELL_ID":128846,"BEZIRK":22,"ADRESSE":"Industriestraße 65","STATUS":"R","STATUS_TXT":"realisiert","ANZ_SCOOTER":null,"WEBLINK1":null,"ANL_TYP":"BS","ANL_TYP_TXT":"Leih-E-Scooterabstellfläche"}},{"type":"Feature","id":"SCOOTERABSTELLOGD.146391","geometry":{"type":"Point","coordinates":[16.47502169,48.21332074]},"geometry_name":"SHAPE","properties":{"OBJECTID":146391,"ABSTELL_ID":128176,"BEZIRK":22,"ADRESSE":"Wulzendorfstraße 89","STATUS":"R","STATUS_TXT":"realisiert","ANZ_SCOOTER":null,"WEBLINK1":null,"ANL_TYP":"BS","ANL_TYP_TXT":"Leih-E-Scooterabstellfläche"}},{"type":"Feature","id":"SCOOTERABSTELLOGD.146392","geometry":{"type":"Point","coordinates":[16.44977065,48.22038553]},"geometry_name":"SHAPE","properties":{"OBJECTID":146392,"ABSTELL_ID":128177,"BEZIRK":22,"ADRESSE":"Kaisermühlenstraße 26","STATUS":"R","STATUS_TXT":"realisiert","ANZ_SCOOTER":null,"WEBLINK1":null,"ANL_TYP":"BS","ANL_TYP_TXT":"Leih-E-Scooterabstellfläche"}},{"type":"Feature","id":"SCOOTERABSTELLOGD.146393","geometry":{"type":"Point","coordinates":[16.30765658,48.20197071]},"geometry_name":"SHAPE","properties":{"OBJECTID":146393,"ABSTELL_ID":127255,"BEZIRK":14,"ADRESSE":"Breitenseer Straße 31-33","STATUS":"R","STATUS_TXT":"realisiert","ANZ_SCOOTER":18,"WEBLINK1":null,"ANL_TYP":"SC","ANL_TYP_TXT":"Scooterabstellanlage"}},{"type":"Feature","id":"SCOOTERABSTELLOGD.146394","geometry":{"type":"Point","coordinates":[16.30767012,48.20200623]},"geometry_name":"SHAPE","properties":{"OBJECTID":146394,"ABSTELL_ID":127256,"BEZIRK":14,"ADRESSE":"Breitenseer Straße 31-33","STATUS":"R","STATUS_TXT":"realisiert","ANZ_SCOOTER":18,"WEBLINK1":null,"ANL_TYP":"SC","ANL_TYP_TXT":"Scooterabstellanlage"}},{"type":"Feature","id":"SCOOTERABSTELLOGD.146395","geometry":{"type":"Point","coordinates":[16.38621216,48.21810803]},"geometry_name":"SHAPE","properties":{"OBJECTID":146395,"ABSTELL_ID":127257,"BEZIRK":2,"ADRESSE":"Zirkusgasse 46-48","STATUS":"R","STATUS_TXT":"realisiert","ANZ_SCOOTER":13,"WEBLINK1":null,"ANL_TYP":"SC","ANL_TYP_TXT":"Scooterabstellanlage"}},{"type":"Feature","id":"SCOOTERABSTELLOGD.146396","geometry":{"type":"Point","coordinates":[16.38617771,48.21805975]},"geometry_name":"SHAPE","properties":{"OBJECTID":146396,"ABSTELL_ID":127258,"BEZIRK":2,"ADRESSE":"Zirkusgasse 46-48","STATUS":"R","STATUS_TXT":"realisiert","ANZ_SCOOTER":13,"WEBLINK1":null,"ANL_TYP":"SC","ANL_TYP_TXT":"Scooterabstellanlage"}},{"type":"Feature","id":"SCOOTERABSTELLOGD.146397","geometry":{"type":"Point","coordinates":[16.30598887,48.21236317]},"geometry_name":"SHAPE","properties":{"OBJECTID":146397,"ABSTELL_ID":127259,"BEZIRK":16,"ADRESSE":"Maroltingergasse 69-71","STATUS":"R","STATUS_TXT":"realisiert","ANZ_SCOOTER":16,"WEBLINK1":null,"ANL_TYP":"SC","ANL_TYP_TXT":"Scooterabstellanlage"}},{"type":"Feature","id":"SCOOTERABSTELLOGD.146398","geometry":{"type":"Point","coordinates":[16.30610295,48.21269757]},"geometry_name":"SHAPE","properties":{"OBJECTID":146398,"ABSTELL_ID":127260,"BEZIRK":16,"ADRESSE":"Maroltingergasse 69-71","STATUS":"R","STATUS_TXT":"realisiert","ANZ_SCOOTER":16,"WEBLINK1":null,"ANL_TYP":"SC","ANL_TYP_TXT":"Scooterabstellanlage"}},{"type":"Feature","id":"SCOOTERABSTELLOGD.146399","geometry":{"type":"Point","coordinates":[16.34499893,48.19989108]},"geometry_name":"SHAPE","properties":{"OBJECTID":146399,"ABSTELL_ID":127261,"BEZIRK":7,"ADRESSE":"Zieglergasse 23","STATUS":"R","STATUS_TXT":"realisiert","ANZ_SCOOTER":9,"WEBLINK1":null,"ANL_TYP":"SC","ANL_TYP_TXT":"Scooterabstellanlage"}},{"type":"Feature","id":"SCOOTERABSTELLOGD.146400","geometry":{"type":"Point","coordinates":[16.35406152,48.20393266]},"geometry_name":"SHAPE","properties":{"OBJECTID":146400,"ABSTELL_ID":127262,"BEZIRK":7,"ADRESSE":"Stiftgasse 37","STATUS":"R","STATUS_TXT":"realisiert","ANZ_SCOOTER":13,"WEBLINK1":null,"ANL_TYP":"SC","ANL_TYP_TXT":"Scooterabstellanlage"}},{"type":"Feature","id":"SCOOTERABSTELLOGD.146403","geometry":{"type":"Point","coordinates":[16.34342691,48.19138929]},"geometry_name":"SHAPE","properties":{"OBJECTID":146403,"ABSTELL_ID":127265,"BEZIRK":6,"ADRESSE":"Sonnenuhrgasse 3-5","STATUS":"R","STATUS_TXT":"realisiert","ANZ_SCOOTER":18,"WEBLINK1":null,"ANL_TYP":"SC","ANL_TYP_TXT":"Scooterabstellanlage"}},{"type":"Feature","id":"SCOOTERABSTELLOGD.146404","geometry":{"type":"Point","coordinates":[16.34461266,48.19242898]},"geometry_name":"SHAPE","properties":{"OBJECTID":146404,"ABSTELL_ID":127266,"BEZIRK":6,"ADRESSE":"Liniengasse 17-19","STATUS":"R","STATUS_TXT":"realisiert","ANZ_SCOOTER":31,"WEBLINK1":null,"ANL_TYP":"SC","ANL_TYP_TXT":"Scooterabstellanlage"}},{"type":"Feature","id":"SCOOTERABSTELLOGD.146405","geometry":{"type":"Point","coordinates":[16.34970324,48.21080959]},"geometry_name":"SHAPE","properties":{"OBJECTID":146405,"ABSTELL_ID":127267,"BEZIRK":8,"ADRESSE":"Jodok-Fink-Platz 2","STATUS":"R","STATUS_TXT":"realisiert","ANZ_SCOOTER":13,"WEBLINK1":null,"ANL_TYP":"SC","ANL_TYP_TXT":"Scooterabstellanlage"}},{"type":"Feature","id":"SCOOTERABSTELLOGD.146406","geometry":{"type":"Point","coordinates":[16.35055619,48.19160976]},"geometry_name":"SHAPE","properties":{"OBJECTID":146406,"ABSTELL_ID":127268,"BEZIRK":6,"ADRESSE":"Marchettigasse 3","STATUS":"R","STATUS_TXT":"realisiert","ANZ_SCOOTER":18,"WEBLINK1":null,"ANL_TYP":"SC","ANL_TYP_TXT":"Scooterabstellanlage"}},{"type":"Feature","id":"SCOOTERABSTELLOGD.146407","geometry":{"type":"Point","coordinates":[16.38202896,48.26515925]},"geometry_name":"SHAPE","properties":{"OBJECTID":146407,"ABSTELL_ID":127269,"BEZIRK":21,"ADRESSE":"Ampèregasse 8","STATUS":"R","STATUS_TXT":"realisiert","ANZ_SCOOTER":13,"WEBLINK1":null,"ANL_TYP":"SC","ANL_TYP_TXT":"Scooterabstellanlage"}},{"type":"Feature","id":"SCOOTERABSTELLOGD.146408","geometry":{"type":"Point","coordinates":[16.33313254,48.21646414]},"geometry_name":"SHAPE","properties":{"OBJECTID":146408,"ABSTELL_ID":127270,"BEZIRK":17,"ADRESSE":"Geblergasse 56-58","STATUS":"R","STATUS_TXT":"realisiert","ANZ_SCOOTER":26,"WEBLINK1":null,"ANL_TYP":"SC","ANL_TYP_TXT":"Scooterabstellanlage"}},{"type":"Feature","id":"SCOOTERABSTELLOGD.146409","geometry":{"type":"Point","coordinates":[16.35022806,48.20181199]},"geometry_name":"SHAPE","properties":{"OBJECTID":146409,"ABSTELL_ID":127271,"BEZIRK":7,"ADRESSE":"Zollergasse 41","STATUS":"R","STATUS_TXT":"realisiert","ANZ_SCOOTER":13,"WEBLINK1":null,"ANL_TYP":"SC","ANL_TYP_TXT":"Scooterabstellanlage"}},{"type":"Feature","id":"SCOOTERABSTELLOGD.146436","geometry":{"type":"Point","coordinates":[16.3303809,48.17467585]},"geometry_name":"SHAPE","properties":{"OBJECTID":146436,"ABSTELL_ID":128431,"BEZIRK":12,"ADRESSE":"Meidlinger Hauptstraße 79","STATUS":"R","STATUS_TXT":"realisiert","ANZ_SCOOTER":null,"WEBLINK1":null,"ANL_TYP":"BS","ANL_TYP_TXT":"Leih-E-Scooterabstellfläche"}},{"type":"Feature","id":"SCOOTERABSTELLOGD.146437","geometry":{"type":"Point","coordinates":[16.33120919,48.1812036]},"geometry_name":"SHAPE","properties":{"OBJECTID":146437,"ABSTELL_ID":128433,"BEZIRK":12,"ADRESSE":"Vivenotgasse 1","STATUS":"R","STATUS_TXT":"realisiert","ANZ_SCOOTER":null,"WEBLINK1":null,"ANL_TYP":"BS","ANL_TYP_TXT":"Leih-E-Scooterabstellfläche"}},{"type":"Feature","id":"SCOOTERABSTELLOGD.146438","geometry":{"type":"Point","coordinates":[16.31541409,48.17663896]},"geometry_name":"SHAPE","properties":{"OBJECTID":146438,"ABSTELL_ID":128434,"BEZIRK":12,"ADRESSE":"Hohenbergstraße 23","STATUS":"R","STATUS_TXT":"realisiert","ANZ_SCOOTER":null,"WEBLINK1":null,"ANL_TYP":"BS","ANL_TYP_TXT":"Leih-E-Scooterabstellfläche"}},{"type":"Feature","id":"SCOOTERABSTELLOGD.146439","geometry":{"type":"Point","coordinates":[16.40793727,48.21285707]},"geometry_name":"SHAPE","properties":{"OBJECTID":146439,"ABSTELL_ID":128445,"BEZIRK":2,"ADRESSE":"Südportalstraße 3","STATUS":"R","STATUS_TXT":"realisiert","ANZ_SCOOTER":null,"WEBLINK1":null,"ANL_TYP":"BS","ANL_TYP_TXT":"Leih-E-Scooterabstellfläche"}},{"type":"Feature","id":"SCOOTERABSTELLOGD.146440","geometry":{"type":"Point","coordinates":[16.34404656,48.22633951]},"geometry_name":"SHAPE","properties":{"OBJECTID":146440,"ABSTELL_ID":128446,"BEZIRK":18,"ADRESSE":"Währinger Straße 97","STATUS":"R","STATUS_TXT":"realisiert","ANZ_SCOOTER":null,"WEBLINK1":null,"ANL_TYP":"BS","ANL_TYP_TXT":"Leih-E-Scooterabstellfläche"}},{"type":"Feature","id":"SCOOTERABSTELLOGD.146441","geometry":{"type":"Point","coordinates":[16.32214338,48.22113646]},"geometry_name":"SHAPE","properties":{"OBJECTID":146441,"ABSTELL_ID":128447,"BEZIRK":17,"ADRESSE":"Hernalser Hauptstraße 127","STATUS":"R","STATUS_TXT":"realisiert","ANZ_SCOOTER":null,"WEBLINK1":null,"ANL_TYP":"BS","ANL_TYP_TXT":"Leih-E-Scooterabstellfläche"}},{"type":"Feature","id":"SCOOTERABSTELLOGD.146442","geometry":{"type":"Point","coordinates":[16.35428944,48.22499433]},"geometry_name":"SHAPE","properties":{"OBJECTID":146442,"ABSTELL_ID":128535,"BEZIRK":9,"ADRESSE":"Sechsschimmelgasse 1","STATUS":"R","STATUS_TXT":"realisiert","ANZ_SCOOTER":null,"WEBLINK1":null,"ANL_TYP":"BS","ANL_TYP_TXT":"Leih-E-Scooterabstellfläche"}},{"type":"Feature","id":"SCOOTERABSTELLOGD.146443","geometry":{"type":"Point","coordinates":[16.30583337,48.19221667]},"geometry_name":"SHAPE","properties":{"OBJECTID":146443,"ABSTELL_ID":128536,"BEZIRK":14,"ADRESSE":"Diesterweggasse 34","STATUS":"R","STATUS_TXT":"realisiert","ANZ_SCOOTER":null,"WEBLINK1":null,"ANL_TYP":"BS","ANL_TYP_TXT":"Leih-E-Scooterabstellfläche"}},{"type":"Feature","id":"SCOOTERABSTELLOGD.146444","geometry":{"type":"Point","coordinates":[16.34953307,48.22623344]},"geometry_name":"SHAPE","properties":{"OBJECTID":146444,"ABSTELL_ID":128538,"BEZIRK":18,"ADRESSE":"Währinger Gürtel - Sechsschimmelgasse","STATUS":"R","STATUS_TXT":"realisiert","ANZ_SCOOTER":null,"WEBLINK1":null,"ANL_TYP":"BS","ANL_TYP_TXT":"Leih-E-Scooterabstellfläche"}},{"type":"Feature","id":"SCOOTERABSTELLOGD.146445","geometry":{"type":"Point","coordinates":[16.33539514,48.20883417]},"geometry_name":"SHAPE","properties":{"OBJECTID":146445,"ABSTELL_ID":128540,"BEZIRK":16,"ADRESSE":"Brunnengasse 32","STATUS":"R","STATUS_TXT":"realisiert","ANZ_SCOOTER":null,"WEBLINK1":null,"ANL_TYP":"BS","ANL_TYP_TXT":"Leih-E-Scooterabstellfläche"}},{"type":"Feature","id":"SCOOTERABSTELLOGD.146447","geometry":{"type":"Point","coordinates":[16.33928289,48.19106389]},"geometry_name":"SHAPE","properties":{"OBJECTID":146447,"ABSTELL_ID":127609,"BEZIRK":6,"ADRESSE":"Liniengasse  53","STATUS":"R","STATUS_TXT":"realisiert","ANZ_SCOOTER":9,"WEBLINK1":null,"ANL_TYP":"SC","ANL_TYP_TXT":"Scooterabstellanlage"}},{"type":"Feature","id":"SCOOTERABSTELLOGD.146448","geometry":{"type":"Point","coordinates":[16.37019186,48.2034158]},"geometry_name":"SHAPE","properties":{"OBJECTID":146448,"ABSTELL_ID":128107,"BEZIRK":1,"ADRESSE":"Kärntner Straße ggü. 51","STATUS":"R","STATUS_TXT":"realisiert","ANZ_SCOOTER":null,"WEBLINK1":null,"ANL_TYP":"BS","ANL_TYP_TXT":"Leih-E-Scooterabstellfläche"}},{"type":"Feature","id":"SCOOTERABSTELLOGD.146449","geometry":{"type":"Point","coordinates":[16.3068092,48.1981891]},"geometry_name":"SHAPE","properties":{"OBJECTID":146449,"ABSTELL_ID":128105,"BEZIRK":14,"ADRESSE":"Drechslergasse ggü. 44","STATUS":"R","STATUS_TXT":"realisiert","ANZ_SCOOTER":null,"WEBLINK1":null,"ANL_TYP":"BS","ANL_TYP_TXT":"Leih-E-Scooterabstellfläche"}},{"type":"Feature","id":"SCOOTERABSTELLOGD.146450","geometry":{"type":"Point","coordinates":[16.3603084,48.209934]},"geometry_name":"SHAPE","properties":{"OBJECTID":146450,"ABSTELL_ID":128106,"BEZIRK":1,"ADRESSE":"Universitätsring - Rathausplatz","STATUS":"R","STATUS_TXT":"realisiert","ANZ_SCOOTER":null,"WEBLINK1":null,"ANL_TYP":"BS","ANL_TYP_TXT":"Leih-E-Scooterabstellfläche"}},{"type":"Feature","id":"SCOOTERABSTELLOGD.146451","geometry":{"type":"Point","coordinates":[16.26277179,48.13359564]},"geometry_name":"SHAPE","properties":{"OBJECTID":146451,"ABSTELL_ID":128097,"BEZIRK":23,"ADRESSE":"Ketzergasse 435-437","STATUS":"R","STATUS_TXT":"realisiert","ANZ_SCOOTER":null,"WEBLINK1":null,"ANL_TYP":"BS","ANL_TYP_TXT":"Leih-E-Scooterabstellfläche"}},{"type":"Feature","id":"SCOOTERABSTELLOGD.146452","geometry":{"type":"Point","coordinates":[16.35094715,48.19870394]},"geometry_name":"SHAPE","properties":{"OBJECTID":146452,"ABSTELL_ID":128114,"BEZIRK":7,"ADRESSE":"Mariahilfer Straße 62","STATUS":"R","STATUS_TXT":"realisiert","ANZ_SCOOTER":null,"WEBLINK1":null,"ANL_TYP":"BS","ANL_TYP_TXT":"Leih-E-Scooterabstellfläche"}},{"type":"Feature","id":"SCOOTERABSTELLOGD.146453","geometry":{"type":"Point","coordinates":[16.32978901,48.20277935]},"geometry_name":"SHAPE","properties":{"OBJECTID":146453,"ABSTELL_ID":128099,"BEZIRK":15,"ADRESSE":"Markgraf-Rüdiger-Straße ggü. 17","STATUS":"R","STATUS_TXT":"realisiert","ANZ_SCOOTER":null,"WEBLINK1":null,"ANL_TYP":"BS","ANL_TYP_TXT":"Leih-E-Scooterabstellfläche"}},{"type":"Feature","id":"SCOOTERABSTELLOGD.146454","geometry":{"type":"Point","coordinates":[16.3604673,48.20662595]},"geometry_name":"SHAPE","properties":{"OBJECTID":146454,"ABSTELL_ID":128109,"BEZIRK":1,"ADRESSE":"Dr.-Karl-Renner-Ring ggü. 1","STATUS":"R","STATUS_TXT":"realisiert","ANZ_SCOOTER":null,"WEBLINK1":null,"ANL_TYP":"BS","ANL_TYP_TXT":"Leih-E-Scooterabstellfläche"}},{"type":"Feature","id":"SCOOTERABSTELLOGD.146410","geometry":{"type":"Point","coordinates":[16.43163905,48.16584854]},"geometry_name":"SHAPE","properties":{"OBJECTID":146410,"ABSTELL_ID":127272,"BEZIRK":11,"ADRESSE":"Florian-Hedorfer-Straße 20","STATUS":"R","STATUS_TXT":"realisiert","ANZ_SCOOTER":13,"WEBLINK1":null,"ANL_TYP":"SC","ANL_TYP_TXT":"Scooterabstellanlage"}},{"type":"Feature","id":"SCOOTERABSTELLOGD.146411","geometry":{"type":"Point","coordinates":[16.42388071,48.23760159]},"geometry_name":"SHAPE","properties":{"OBJECTID":146411,"ABSTELL_ID":128526,"BEZIRK":22,"ADRESSE":"Kratochwjlestraße  12","STATUS":"R","STATUS_TXT":"realisiert","ANZ_SCOOTER":null,"WEBLINK1":null,"ANL_TYP":"BS","ANL_TYP_TXT":"Leih-E-Scooterabstellfläche"}},{"type":"Feature","id":"SCOOTERABSTELLOGD.146412","geometry":{"type":"Point","coordinates":[16.46238448,48.15449896]},"geometry_name":"SHAPE","properties":{"OBJECTID":146412,"ABSTELL_ID":127273,"BEZIRK":11,"ADRESSE":"Svetelskystraße 6","STATUS":"R","STATUS_TXT":"realisiert","ANZ_SCOOTER":72,"WEBLINK1":null,"ANL_TYP":"SC","ANL_TYP_TXT":"Scooterabstellanlage"}},{"type":"Feature","id":"SCOOTERABSTELLOGD.146413","geometry":{"type":"Point","coordinates":[16.33963399,48.2293922]},"geometry_name":"SHAPE","properties":{"OBJECTID":146413,"ABSTELL_ID":127274,"BEZIRK":18,"ADRESSE":"Haizingergasse 37","STATUS":"R","STATUS_TXT":"realisiert","ANZ_SCOOTER":52,"WEBLINK1":null,"ANL_TYP":"SC","ANL_TYP_TXT":"Scooterabstellanlage"}},{"type":"Feature","id":"SCOOTERABSTELLOGD.146414","geometry":{"type":"Point","coordinates":[16.33983067,48.22924213]},"geometry_name":"SHAPE","properties":{"OBJECTID":146414,"ABSTELL_ID":127275,"BEZIRK":18,"ADRESSE":"Haizingergasse 35","STATUS":"R","STATUS_TXT":"realisiert","ANZ_SCOOTER":52,"WEBLINK1":null,"ANL_TYP":"SC","ANL_TYP_TXT":"Scooterabstellanlage"}},{"type":"Feature","id":"SCOOTERABSTELLOGD.146416","geometry":{"type":"Point","coordinates":[16.34096203,48.22429077]},"geometry_name":"SHAPE","properties":{"OBJECTID":146416,"ABSTELL_ID":127277,"BEZIRK":18,"ADRESSE":"Schopenhauerstraße 44-46-48","STATUS":"R","STATUS_TXT":"realisiert","ANZ_SCOOTER":52,"WEBLINK1":null,"ANL_TYP":"SC","ANL_TYP_TXT":"Scooterabstellanlage"}},{"type":"Feature","id":"SCOOTERABSTELLOGD.146417","geometry":{"type":"Point","coordinates":[16.33987955,48.19870049]},"geometry_name":"SHAPE","properties":{"OBJECTID":146417,"ABSTELL_ID":127278,"BEZIRK":7,"ADRESSE":"Kenyongasse 2","STATUS":"R","STATUS_TXT":"realisiert","ANZ_SCOOTER":18,"WEBLINK1":null,"ANL_TYP":"SC","ANL_TYP_TXT":"Scooterabstellanlage"}},{"type":"Feature","id":"SCOOTERABSTELLOGD.146418","geometry":{"type":"Point","coordinates":[16.33986361,48.19874418]},"geometry_name":"SHAPE","properties":{"OBJECTID":146418,"ABSTELL_ID":127279,"BEZIRK":7,"ADRESSE":"Kenyongasse 2","STATUS":"R","STATUS_TXT":"realisiert","ANZ_SCOOTER":18,"WEBLINK1":null,"ANL_TYP":"SC","ANL_TYP_TXT":"Scooterabstellanlage"}},{"type":"Feature","id":"SCOOTERABSTELLOGD.146419","geometry":{"type":"Point","coordinates":[16.33272115,48.21060668]},"geometry_name":"SHAPE","properties":{"OBJECTID":146419,"ABSTELL_ID":127280,"BEZIRK":16,"ADRESSE":"Grundsteingasse 48-56","STATUS":"R","STATUS_TXT":"realisiert","ANZ_SCOOTER":13,"WEBLINK1":null,"ANL_TYP":"SC","ANL_TYP_TXT":"Scooterabstellanlage"}},{"type":"Feature","id":"SCOOTERABSTELLOGD.146420","geometry":{"type":"Point","coordinates":[16.33276232,48.2106022]},"geometry_name":"SHAPE","properties":{"OBJECTID":146420,"ABSTELL_ID":127281,"BEZIRK":16,"ADRESSE":"Grundsteingasse 48-56","STATUS":"R","STATUS_TXT":"realisiert","ANZ_SCOOTER":13,"WEBLINK1":null,"ANL_TYP":"SC","ANL_TYP_TXT":"Scooterabstellanlage"}},{"type":"Feature","id":"SCOOTERABSTELLOGD.146421","geometry":{"type":"Point","coordinates":[16.33916354,48.25590795]},"geometry_name":"SHAPE","properties":{"OBJECTID":146421,"ABSTELL_ID":127282,"BEZIRK":19,"ADRESSE":"Mannagettagasse 1","STATUS":"R","STATUS_TXT":"realisiert","ANZ_SCOOTER":18,"WEBLINK1":null,"ANL_TYP":"SC","ANL_TYP_TXT":"Scooterabstellanlage"}},{"type":"Feature","id":"SCOOTERABSTELLOGD.146422","geometry":{"type":"Point","coordinates":[16.33909784,48.25583582]},"geometry_name":"SHAPE","properties":{"OBJECTID":146422,"ABSTELL_ID":127283,"BEZIRK":19,"ADRESSE":"Mannagettagasse 1","STATUS":"R","STATUS_TXT":"realisiert","ANZ_SCOOTER":18,"WEBLINK1":null,"ANL_TYP":"SC","ANL_TYP_TXT":"Scooterabstellanlage"}},{"type":"Feature","id":"SCOOTERABSTELLOGD.146425","geometry":{"type":"Point","coordinates":[16.38386665,48.19799349]},"geometry_name":"SHAPE","properties":{"OBJECTID":146425,"ABSTELL_ID":127286,"BEZIRK":3,"ADRESSE":"Reisnerstraße 43","STATUS":"R","STATUS_TXT":"realisiert","ANZ_SCOOTER":13,"WEBLINK1":null,"ANL_TYP":"SC","ANL_TYP_TXT":"Scooterabstellanlage"}},{"type":"Feature","id":"SCOOTERABSTELLOGD.146426","geometry":{"type":"Point","coordinates":[16.39716469,48.20985781]},"geometry_name":"SHAPE","properties":{"OBJECTID":146426,"ABSTELL_ID":127288,"BEZIRK":2,"ADRESSE":"Josef-Gall-Gasse 2","STATUS":"R","STATUS_TXT":"realisiert","ANZ_SCOOTER":18,"WEBLINK1":null,"ANL_TYP":"SC","ANL_TYP_TXT":"Scooterabstellanlage"}},{"type":"Feature","id":"SCOOTERABSTELLOGD.146427","geometry":{"type":"Point","coordinates":[16.39749104,48.20990791]},"geometry_name":"SHAPE","properties":{"OBJECTID":146427,"ABSTELL_ID":127289,"BEZIRK":2,"ADRESSE":"Josef-Gall-Gasse 2","STATUS":"R","STATUS_TXT":"realisiert","ANZ_SCOOTER":18,"WEBLINK1":null,"ANL_TYP":"SC","ANL_TYP_TXT":"Scooterabstellanlage"}},{"type":"Feature","id":"SCOOTERABSTELLOGD.146428","geometry":{"type":"Point","coordinates":[16.34836595,48.22521942]},"geometry_name":"SHAPE","properties":{"OBJECTID":146428,"ABSTELL_ID":128527,"BEZIRK":18,"ADRESSE":"Währinger Straße 75","STATUS":"R","STATUS_TXT":"realisiert","ANZ_SCOOTER":null,"WEBLINK1":null,"ANL_TYP":"BS","ANL_TYP_TXT":"Leih-E-Scooterabstellfläche"}},{"type":"Feature","id":"SCOOTERABSTELLOGD.146429","geometry":{"type":"Point","coordinates":[16.30585877,48.1929349]},"geometry_name":"SHAPE","properties":{"OBJECTID":146429,"ABSTELL_ID":128528,"BEZIRK":14,"ADRESSE":"Diesterweggasse ggü. 36","STATUS":"R","STATUS_TXT":"realisiert","ANZ_SCOOTER":null,"WEBLINK1":null,"ANL_TYP":"BS","ANL_TYP_TXT":"Leih-E-Scooterabstellfläche"}},{"type":"Feature","id":"SCOOTERABSTELLOGD.146430","geometry":{"type":"Point","coordinates":[16.31471037,48.16602939]},"geometry_name":"SHAPE","properties":{"OBJECTID":146430,"ABSTELL_ID":128529,"BEZIRK":12,"ADRESSE":"Eckartsaugasse ggü. 5","STATUS":"R","STATUS_TXT":"realisiert","ANZ_SCOOTER":null,"WEBLINK1":null,"ANL_TYP":"BS","ANL_TYP_TXT":"Leih-E-Scooterabstellfläche"}},{"type":"Feature","id":"SCOOTERABSTELLOGD.146431","geometry":{"type":"Point","coordinates":[16.35643613,48.22512344]},"geometry_name":"SHAPE","properties":{"OBJECTID":146431,"ABSTELL_ID":128530,"BEZIRK":9,"ADRESSE":"Pfluggasse 1","STATUS":"R","STATUS_TXT":"realisiert","ANZ_SCOOTER":null,"WEBLINK1":null,"ANL_TYP":"BS","ANL_TYP_TXT":"Leih-E-Scooterabstellfläche"}},{"type":"Feature","id":"SCOOTERABSTELLOGD.146432","geometry":{"type":"Point","coordinates":[16.35908455,48.22906442]},"geometry_name":"SHAPE","properties":{"OBJECTID":146432,"ABSTELL_ID":128531,"BEZIRK":9,"ADRESSE":"Althanstraße 14","STATUS":"R","STATUS_TXT":"realisiert","ANZ_SCOOTER":null,"WEBLINK1":null,"ANL_TYP":"BS","ANL_TYP_TXT":"Leih-E-Scooterabstellfläche"}},{"type":"Feature","id":"SCOOTERABSTELLOGD.146433","geometry":{"type":"Point","coordinates":[16.31995491,48.18576336]},"geometry_name":"SHAPE","properties":{"OBJECTID":146433,"ABSTELL_ID":128533,"BEZIRK":13,"ADRESSE":"Grünbergstraße - Schönbrunner Brücke","STATUS":"R","STATUS_TXT":"realisiert","ANZ_SCOOTER":null,"WEBLINK1":null,"ANL_TYP":"BS","ANL_TYP_TXT":"Leih-E-Scooterabstellfläche"}},{"type":"Feature","id":"SCOOTERABSTELLOGD.146434","geometry":{"type":"Point","coordinates":[16.3166881,48.15007227]},"geometry_name":"SHAPE","properties":{"OBJECTID":146434,"ABSTELL_ID":128534,"BEZIRK":23,"ADRESSE":"Elisabeth-Bergner-Weg Höhe Erilaweg","STATUS":"R","STATUS_TXT":"realisiert","ANZ_SCOOTER":null,"WEBLINK1":null,"ANL_TYP":"BS","ANL_TYP_TXT":"Leih-E-Scooterabstellfläche"}},{"type":"Feature","id":"SCOOTERABSTELLOGD.146435","geometry":{"type":"Point","coordinates":[16.28261209,48.13525339]},"geometry_name":"SHAPE","properties":{"OBJECTID":146435,"ABSTELL_ID":128430,"BEZIRK":23,"ADRESSE":"Liesinger Platz/ Lehmanngasse 1","STATUS":"R","STATUS_TXT":"realisiert","ANZ_SCOOTER":null,"WEBLINK1":null,"ANL_TYP":"BS","ANL_TYP_TXT":"Leih-E-Scooterabstellfläche"}},{"type":"Feature","id":"SCOOTERABSTELLOGD.146455","geometry":{"type":"Point","coordinates":[16.28316175,48.13443603]},"geometry_name":"SHAPE","properties":{"OBJECTID":146455,"ABSTELL_ID":128101,"BEZIRK":23,"ADRESSE":"Franz-Parsche-Gasse ggü. 4","STATUS":"R","STATUS_TXT":"realisiert","ANZ_SCOOTER":null,"WEBLINK1":null,"ANL_TYP":"BS","ANL_TYP_TXT":"Leih-E-Scooterabstellfläche"}},{"type":"Feature","id":"SCOOTERABSTELLOGD.146456","geometry":{"type":"Point","coordinates":[16.34145898,48.19675509]},"geometry_name":"SHAPE","properties":{"OBJECTID":146456,"ABSTELL_ID":128115,"BEZIRK":7,"ADRESSE":"Kaiserstraße 5","STATUS":"R","STATUS_TXT":"realisiert","ANZ_SCOOTER":null,"WEBLINK1":null,"ANL_TYP":"BS","ANL_TYP_TXT":"Leih-E-Scooterabstellfläche"}},{"type":"Feature","id":"SCOOTERABSTELLOGD.146457","geometry":{"type":"Point","coordinates":[16.34580519,48.19748493]},"geometry_name":"SHAPE","properties":{"OBJECTID":146457,"ABSTELL_ID":128103,"BEZIRK":7,"ADRESSE":"Zieglergasse 2","STATUS":"R","STATUS_TXT":"realisiert","ANZ_SCOOTER":null,"WEBLINK1":null,"ANL_TYP":"BS","ANL_TYP_TXT":"Leih-E-Scooterabstellfläche"}},{"type":"Feature","id":"SCOOTERABSTELLOGD.146458","geometry":{"type":"Point","coordinates":[16.3607307,48.21175122]},"geometry_name":"SHAPE","properties":{"OBJECTID":146458,"ABSTELL_ID":128116,"BEZIRK":1,"ADRESSE":"Universitätsring ggü. 4","STATUS":"R","STATUS_TXT":"realisiert","ANZ_SCOOTER":null,"WEBLINK1":null,"ANL_TYP":"BS","ANL_TYP_TXT":"Leih-E-Scooterabstellfläche"}},{"type":"Feature","id":"SCOOTERABSTELLOGD.146459","geometry":{"type":"Point","coordinates":[16.28841811,48.14715448]},"geometry_name":"SHAPE","properties":{"OBJECTID":146459,"ABSTELL_ID":128112,"BEZIRK":23,"ADRESSE":"Gatterederstraße ggü. 26A","STATUS":"R","STATUS_TXT":"realisiert","ANZ_SCOOTER":null,"WEBLINK1":null,"ANL_TYP":"BS","ANL_TYP_TXT":"Leih-E-Scooterabstellfläche"}},{"type":"Feature","id":"SCOOTERABSTELLOGD.146461","geometry":{"type":"Point","coordinates":[16.37112558,48.20220391]},"geometry_name":"SHAPE","properties":{"OBJECTID":146461,"ABSTELL_ID":128117,"BEZIRK":1,"ADRESSE":"Kärntner Ring 5-7","STATUS":"R","STATUS_TXT":"realisiert","ANZ_SCOOTER":null,"WEBLINK1":null,"ANL_TYP":"BS","ANL_TYP_TXT":"Leih-E-Scooterabstellfläche"}},{"type":"Feature","id":"SCOOTERABSTELLOGD.146462","geometry":{"type":"Point","coordinates":[16.36122811,48.21467988]},"geometry_name":"SHAPE","properties":{"OBJECTID":146462,"ABSTELL_ID":128118,"BEZIRK":9,"ADRESSE":"Währinger Straße ggü. 2-4","STATUS":"R","STATUS_TXT":"realisiert","ANZ_SCOOTER":null,"WEBLINK1":null,"ANL_TYP":"BS","ANL_TYP_TXT":"Leih-E-Scooterabstellfläche"}},{"type":"Feature","id":"SCOOTERABSTELLOGD.146463","geometry":{"type":"Point","coordinates":[16.347004,48.21540263]},"geometry_name":"SHAPE","properties":{"OBJECTID":146463,"ABSTELL_ID":128119,"BEZIRK":9,"ADRESSE":"Alser Straße 28","STATUS":"R","STATUS_TXT":"realisiert","ANZ_SCOOTER":null,"WEBLINK1":null,"ANL_TYP":"BS","ANL_TYP_TXT":"Leih-E-Scooterabstellfläche"}},{"type":"Feature","id":"SCOOTERABSTELLOGD.146465","geometry":{"type":"Point","coordinates":[16.37744623,48.2156907]},"geometry_name":"SHAPE","properties":{"OBJECTID":146465,"ABSTELL_ID":127571,"BEZIRK":2,"ADRESSE":"Kleine Sperlgasse 2A - Friedrich-Kiesler-Schule","STATUS":"R","STATUS_TXT":"realisiert","ANZ_SCOOTER":18,"WEBLINK1":null,"ANL_TYP":"SC","ANL_TYP_TXT":"Scooterabstellanlage"}},{"type":"Feature","id":"SCOOTERABSTELLOGD.146466","geometry":{"type":"Point","coordinates":[16.41575168,48.18053293]},"geometry_name":"SHAPE","properties":{"OBJECTID":146466,"ABSTELL_ID":127797,"BEZIRK":11,"ADRESSE":"Fuchsröhrenstraße 32","STATUS":"R","STATUS_TXT":"realisiert","ANZ_SCOOTER":18,"WEBLINK1":null,"ANL_TYP":"SC","ANL_TYP_TXT":"Scooterabstellanlage"}},{"type":"Feature","id":"SCOOTERABSTELLOGD.146467","geometry":{"type":"Point","coordinates":[16.35252174,48.20535516]},"geometry_name":"SHAPE","properties":{"OBJECTID":146467,"ABSTELL_ID":128130,"BEZIRK":7,"ADRESSE":"Neustiftgasse 22","STATUS":"R","STATUS_TXT":"realisiert","ANZ_SCOOTER":null,"WEBLINK1":null,"ANL_TYP":"BS","ANL_TYP_TXT":"Leih-E-Scooterabstellfläche"}},{"type":"Feature","id":"SCOOTERABSTELLOGD.146468","geometry":{"type":"Point","coordinates":[16.34319792,48.19659834]},"geometry_name":"SHAPE","properties":{"OBJECTID":146468,"ABSTELL_ID":128131,"BEZIRK":7,"ADRESSE":"Mariahilfer Straße 112","STATUS":"R","STATUS_TXT":"realisiert","ANZ_SCOOTER":null,"WEBLINK1":null,"ANL_TYP":"BS","ANL_TYP_TXT":"Leih-E-Scooterabstellfläche"}},{"type":"Feature","id":"SCOOTERABSTELLOGD.146469","geometry":{"type":"Point","coordinates":[16.42053919,48.21105102]},"geometry_name":"SHAPE","properties":{"OBJECTID":146469,"ABSTELL_ID":128121,"BEZIRK":2,"ADRESSE":"Vorgartenstraße ggü. 210","STATUS":"R","STATUS_TXT":"realisiert","ANZ_SCOOTER":null,"WEBLINK1":null,"ANL_TYP":"BS","ANL_TYP_TXT":"Leih-E-Scooterabstellfläche"}},{"type":"Feature","id":"SCOOTERABSTELLOGD.146470","geometry":{"type":"Point","coordinates":[16.35786524,48.20489434]},"geometry_name":"SHAPE","properties":{"OBJECTID":146470,"ABSTELL_ID":128122,"BEZIRK":7,"ADRESSE":"Burggasse / Museumsplatz 1","STATUS":"R","STATUS_TXT":"realisiert","ANZ_SCOOTER":null,"WEBLINK1":null,"ANL_TYP":"BS","ANL_TYP_TXT":"Leih-E-Scooterabstellfläche"}},{"type":"Feature","id":"SCOOTERABSTELLOGD.146471","geometry":{"type":"Point","coordinates":[16.3769858,48.20331966]},"geometry_name":"SHAPE","properties":{"OBJECTID":146471,"ABSTELL_ID":128123,"BEZIRK":1,"ADRESSE":"Parkring ggü. 20","STATUS":"R","STATUS_TXT":"realisiert","ANZ_SCOOTER":null,"WEBLINK1":null,"ANL_TYP":"BS","ANL_TYP_TXT":"Leih-E-Scooterabstellfläche"}},{"type":"Feature","id":"SCOOTERABSTELLOGD.146472","geometry":{"type":"Point","coordinates":[16.38045158,48.20671232]},"geometry_name":"SHAPE","properties":{"OBJECTID":146472,"ABSTELL_ID":128124,"BEZIRK":1,"ADRESSE":"Parkring ggü. 2","STATUS":"R","STATUS_TXT":"realisiert","ANZ_SCOOTER":null,"WEBLINK1":null,"ANL_TYP":"BS","ANL_TYP_TXT":"Leih-E-Scooterabstellfläche"}},{"type":"Feature","id":"SCOOTERABSTELLOGD.146473","geometry":{"type":"Point","coordinates":[16.28206678,48.16794455]},"geometry_name":"SHAPE","properties":{"OBJECTID":146473,"ABSTELL_ID":128125,"BEZIRK":13,"ADRESSE":"Hermesstraße ggü. 1B","STATUS":"R","STATUS_TXT":"realisiert","ANZ_SCOOTER":null,"WEBLINK1":null,"ANL_TYP":"BS","ANL_TYP_TXT":"Leih-E-Scooterabstellfläche"}},{"type":"Feature","id":"SCOOTERABSTELLOGD.146474","geometry":{"type":"Point","coordinates":[16.33704728,48.19505901]},"geometry_name":"SHAPE","properties":{"OBJECTID":146474,"ABSTELL_ID":128126,"BEZIRK":15,"ADRESSE":"Mariahilfer Straße 136","STATUS":"R","STATUS_TXT":"realisiert","ANZ_SCOOTER":null,"WEBLINK1":null,"ANL_TYP":"BS","ANL_TYP_TXT":"Leih-E-Scooterabstellfläche"}},{"type":"Feature","id":"SCOOTERABSTELLOGD.146475","geometry":{"type":"Point","coordinates":[16.32439185,48.16147312]},"geometry_name":"SHAPE","properties":{"OBJECTID":146475,"ABSTELL_ID":128127,"BEZIRK":12,"ADRESSE":"Am Schöpfwerk (U-Bahn Station)","STATUS":"R","STATUS_TXT":"realisiert","ANZ_SCOOTER":null,"WEBLINK1":null,"ANL_TYP":"BS","ANL_TYP_TXT":"Leih-E-Scooterabstellfläche"}},{"type":"Feature","id":"SCOOTERABSTELLOGD.146476","geometry":{"type":"Point","coordinates":[16.34337466,48.19650231]},"geometry_name":"SHAPE","properties":{"OBJECTID":146476,"ABSTELL_ID":128128,"BEZIRK":6,"ADRESSE":"Mariahilfer Straße 113","STATUS":"R","STATUS_TXT":"realisiert","ANZ_SCOOTER":null,"WEBLINK1":null,"ANL_TYP":"BS","ANL_TYP_TXT":"Leih-E-Scooterabstellfläche"}},{"type":"Feature","id":"SCOOTERABSTELLOGD.146477","geometry":{"type":"Point","coordinates":[16.36330737,48.19515801]},"geometry_name":"SHAPE","properties":{"OBJECTID":146477,"ABSTELL_ID":128129,"BEZIRK":4,"ADRESSE":"Margaretenstraße 35","STATUS":"R","STATUS_TXT":"realisiert","ANZ_SCOOTER":null,"WEBLINK1":null,"ANL_TYP":"BS","ANL_TYP_TXT":"Leih-E-Scooterabstellfläche"}},{"type":"Feature","id":"SCOOTERABSTELLOGD.146478","geometry":{"type":"Point","coordinates":[16.37561509,48.17911073]},"geometry_name":"SHAPE","properties":{"OBJECTID":146478,"ABSTELL_ID":128541,"BEZIRK":10,"ADRESSE":"Keplerplatz ggü. 9","STATUS":"R","STATUS_TXT":"realisiert","ANZ_SCOOTER":null,"WEBLINK1":null,"ANL_TYP":"BS","ANL_TYP_TXT":"Leih-E-Scooterabstellfläche"}},{"type":"Feature","id":"SCOOTERABSTELLOGD.146479","geometry":{"type":"Point","coordinates":[16.37472253,48.18405365]},"geometry_name":"SHAPE","properties":{"OBJECTID":146479,"ABSTELL_ID":128542,"BEZIRK":10,"ADRESSE":"Johannitergasse 5","STATUS":"R","STATUS_TXT":"realisiert","ANZ_SCOOTER":null,"WEBLINK1":null,"ANL_TYP":"BS","ANL_TYP_TXT":"Leih-E-Scooterabstellfläche"}},{"type":"Feature","id":"SCOOTERABSTELLOGD.146480","geometry":{"type":"Point","coordinates":[16.32815609,48.21553363]},"geometry_name":"SHAPE","properties":{"OBJECTID":146480,"ABSTELL_ID":128543,"BEZIRK":17,"ADRESSE":"Weißgasse 25-27","STATUS":"R","STATUS_TXT":"realisiert","ANZ_SCOOTER":null,"WEBLINK1":null,"ANL_TYP":"BS","ANL_TYP_TXT":"Leih-E-Scooterabstellfläche"}},{"type":"Feature","id":"SCOOTERABSTELLOGD.148417","geometry":{"type":"Point","coordinates":[16.30437531,48.1713329]},"geometry_name":"SHAPE","properties":{"OBJECTID":148417,"ABSTELL_ID":128546,"BEZIRK":13,"ADRESSE":"Am Fasangarten 2","STATUS":"R","STATUS_TXT":"realisiert","ANZ_SCOOTER":null,"WEBLINK1":null,"ANL_TYP":"BS","ANL_TYP_TXT":"Leih-E-Scooterabstellfläche"}},{"type":"Feature","id":"SCOOTERABSTELLOGD.148418","geometry":{"type":"Point","coordinates":[16.33783158,48.19147885]},"geometry_name":"SHAPE","properties":{"OBJECTID":148418,"ABSTELL_ID":128547,"BEZIRK":6,"ADRESSE":"Mariahilfer Gürtel ggü. 6","STATUS":"R","STATUS_TXT":"realisiert","ANZ_SCOOTER":null,"WEBLINK1":null,"ANL_TYP":"BS","ANL_TYP_TXT":"Leih-E-Scooterabstellfläche"}},{"type":"Feature","id":"SCOOTERABSTELLOGD.148419","geometry":{"type":"Point","coordinates":[16.36676819,48.19955072]},"geometry_name":"SHAPE","properties":{"OBJECTID":148419,"ABSTELL_ID":128548,"BEZIRK":4,"ADRESSE":"Operngasse 11","STATUS":"R","STATUS_TXT":"realisiert","ANZ_SCOOTER":null,"WEBLINK1":null,"ANL_TYP":"BS","ANL_TYP_TXT":"Leih-E-Scooterabstellfläche"}},{"type":"Feature","id":"SCOOTERABSTELLOGD.148420","geometry":{"type":"Point","coordinates":[16.37874307,48.17275301]},"geometry_name":"SHAPE","properties":{"OBJECTID":148420,"ABSTELL_ID":128549,"BEZIRK":10,"ADRESSE":"Favoritenstraße 134-136","STATUS":"R","STATUS_TXT":"realisiert","ANZ_SCOOTER":null,"WEBLINK1":null,"ANL_TYP":"BS","ANL_TYP_TXT":"Leih-E-Scooterabstellfläche"}},{"type":"Feature","id":"SCOOTERABSTELLOGD.148421","geometry":{"type":"Point","coordinates":[16.33218944,48.20072606]},"geometry_name":"SHAPE","properties":{"OBJECTID":148421,"ABSTELL_ID":128550,"BEZIRK":15,"ADRESSE":"Hütteldorfer Straße ggü. 27","STATUS":"R","STATUS_TXT":"realisiert","ANZ_SCOOTER":null,"WEBLINK1":null,"ANL_TYP":"BS","ANL_TYP_TXT":"Leih-E-Scooterabstellfläche"}},{"type":"Feature","id":"SCOOTERABSTELLOGD.148422","geometry":{"type":"Point","coordinates":[16.33572744,48.20387159]},"geometry_name":"SHAPE","properties":{"OBJECTID":148422,"ABSTELL_ID":128551,"BEZIRK":15,"ADRESSE":"Wurzbachgasse 21","STATUS":"R","STATUS_TXT":"realisiert","ANZ_SCOOTER":null,"WEBLINK1":null,"ANL_TYP":"BS","ANL_TYP_TXT":"Leih-E-Scooterabstellfläche"}},{"type":"Feature","id":"SCOOTERABSTELLOGD.148423","geometry":{"type":"Point","coordinates":[16.41572026,48.18048005]},"geometry_name":"SHAPE","properties":{"OBJECTID":148423,"ABSTELL_ID":127682,"BEZIRK":11,"ADRESSE":"Fuchsröhrenstraße 32","STATUS":"R","STATUS_TXT":"realisiert","ANZ_SCOOTER":13,"WEBLINK1":null,"ANL_TYP":"SC","ANL_TYP_TXT":"Scooterabstellanlage"}},{"type":"Feature","id":"SCOOTERABSTELLOGD.148424","geometry":{"type":"Point","coordinates":[16.42362258,48.22606843]},"geometry_name":"SHAPE","properties":{"OBJECTID":148424,"ABSTELL_ID":128179,"BEZIRK":22,"ADRESSE":"Schüttauplatz ggü. 22","STATUS":"R","STATUS_TXT":"realisiert","ANZ_SCOOTER":null,"WEBLINK1":null,"ANL_TYP":"BS","ANL_TYP_TXT":"Leih-E-Scooterabstellfläche"}},{"type":"Feature","id":"SCOOTERABSTELLOGD.148425","geometry":{"type":"Point","coordinates":[16.30246951,48.1877895]},"geometry_name":"SHAPE","properties":{"OBJECTID":148425,"ABSTELL_ID":128143,"BEZIRK":13,"ADRESSE":"Eduard-Klein-Gasse ggü. 1","STATUS":"R","STATUS_TXT":"realisiert","ANZ_SCOOTER":null,"WEBLINK1":null,"ANL_TYP":"BS","ANL_TYP_TXT":"Leih-E-Scooterabstellfläche"}},{"type":"Feature","id":"SCOOTERABSTELLOGD.148426","geometry":{"type":"Point","coordinates":[16.38588004,48.21566326]},"geometry_name":"SHAPE","properties":{"OBJECTID":148426,"ABSTELL_ID":128132,"BEZIRK":2,"ADRESSE":"Praterstraße 43","STATUS":"R","STATUS_TXT":"realisiert","ANZ_SCOOTER":null,"WEBLINK1":null,"ANL_TYP":"BS","ANL_TYP_TXT":"Leih-E-Scooterabstellfläche"}},{"type":"Feature","id":"SCOOTERABSTELLOGD.148427","geometry":{"type":"Point","coordinates":[16.34946232,48.19461232]},"geometry_name":"SHAPE","properties":{"OBJECTID":148427,"ABSTELL_ID":128134,"BEZIRK":6,"ADRESSE":"Worellstraße 4","STATUS":"R","STATUS_TXT":"realisiert","ANZ_SCOOTER":null,"WEBLINK1":null,"ANL_TYP":"BS","ANL_TYP_TXT":"Leih-E-Scooterabstellfläche"}},{"type":"Feature","id":"SCOOTERABSTELLOGD.148428","geometry":{"type":"Point","coordinates":[16.36810649,48.19971557]},"geometry_name":"SHAPE","properties":{"OBJECTID":148428,"ABSTELL_ID":128135,"BEZIRK":4,"ADRESSE":"Karlsplatz / Treitlstraße ggü. 1","STATUS":"R","STATUS_TXT":"realisiert","ANZ_SCOOTER":null,"WEBLINK1":null,"ANL_TYP":"BS","ANL_TYP_TXT":"Leih-E-Scooterabstellfläche"}},{"type":"Feature","id":"SCOOTERABSTELLOGD.148429","geometry":{"type":"Point","coordinates":[16.26181479,48.19806391]},"geometry_name":"SHAPE","properties":{"OBJECTID":148429,"ABSTELL_ID":128136,"BEZIRK":14,"ADRESSE":"Keißlergasse 18","STATUS":"R","STATUS_TXT":"realisiert","ANZ_SCOOTER":null,"WEBLINK1":null,"ANL_TYP":"BS","ANL_TYP_TXT":"Leih-E-Scooterabstellfläche"}},{"type":"Feature","id":"SCOOTERABSTELLOGD.148430","geometry":{"type":"Point","coordinates":[16.49831189,48.22462277]},"geometry_name":"SHAPE","properties":{"OBJECTID":148430,"ABSTELL_ID":128137,"BEZIRK":22,"ADRESSE":"Maria-Tusch-Straße 6","STATUS":"R","STATUS_TXT":"realisiert","ANZ_SCOOTER":null,"WEBLINK1":null,"ANL_TYP":"BS","ANL_TYP_TXT":"Leih-E-Scooterabstellfläche"}},{"type":"Feature","id":"SCOOTERABSTELLOGD.148431","geometry":{"type":"Point","coordinates":[16.35281109,48.204162]},"geometry_name":"SHAPE","properties":{"OBJECTID":148431,"ABSTELL_ID":128138,"BEZIRK":7,"ADRESSE":"Burggasse 31-33","STATUS":"R","STATUS_TXT":"realisiert","ANZ_SCOOTER":null,"WEBLINK1":null,"ANL_TYP":"BS","ANL_TYP_TXT":"Leih-E-Scooterabstellfläche"}},{"type":"Feature","id":"SCOOTERABSTELLOGD.148432","geometry":{"type":"Point","coordinates":[16.36095359,48.20223784]},"geometry_name":"SHAPE","properties":{"OBJECTID":148432,"ABSTELL_ID":128139,"BEZIRK":7,"ADRESSE":"Platz der Menschenrechte","STATUS":"R","STATUS_TXT":"realisiert","ANZ_SCOOTER":null,"WEBLINK1":null,"ANL_TYP":"BS","ANL_TYP_TXT":"Leih-E-Scooterabstellfläche"}},{"type":"Feature","id":"SCOOTERABSTELLOGD.148433","geometry":{"type":"Point","coordinates":[16.34626639,48.19722954]},"geometry_name":"SHAPE","properties":{"OBJECTID":148433,"ABSTELL_ID":128140,"BEZIRK":7,"ADRESSE":"Mariahilfer Straße 90","STATUS":"R","STATUS_TXT":"realisiert","ANZ_SCOOTER":null,"WEBLINK1":null,"ANL_TYP":"BS","ANL_TYP_TXT":"Leih-E-Scooterabstellfläche"}},{"type":"Feature","id":"SCOOTERABSTELLOGD.148434","geometry":{"type":"Point","coordinates":[16.35230618,48.20213122]},"geometry_name":"SHAPE","properties":{"OBJECTID":148434,"ABSTELL_ID":128141,"BEZIRK":7,"ADRESSE":"Siebensterngasse 29","STATUS":"R","STATUS_TXT":"realisiert","ANZ_SCOOTER":null,"WEBLINK1":null,"ANL_TYP":"BS","ANL_TYP_TXT":"Leih-E-Scooterabstellfläche"}},{"type":"Feature","id":"SCOOTERABSTELLOGD.148435","geometry":{"type":"Point","coordinates":[16.3668957,48.2096149]},"geometry_name":"SHAPE","properties":{"OBJECTID":148435,"ABSTELL_ID":128142,"BEZIRK":1,"ADRESSE":"Wallnerstraße 4","STATUS":"R","STATUS_TXT":"realisiert","ANZ_SCOOTER":null,"WEBLINK1":null,"ANL_TYP":"BS","ANL_TYP_TXT":"Leih-E-Scooterabstellfläche"}},{"type":"Feature","id":"SCOOTERABSTELLOGD.148436","geometry":{"type":"Point","coordinates":[16.35314181,48.21946745]},"geometry_name":"SHAPE","properties":{"OBJECTID":148436,"ABSTELL_ID":128553,"BEZIRK":9,"ADRESSE":"Sensengasse 2A","STATUS":"R","STATUS_TXT":"realisiert","ANZ_SCOOTER":null,"WEBLINK1":null,"ANL_TYP":"BS","ANL_TYP_TXT":"Leih-E-Scooterabstellfläche"}},{"type":"Feature","id":"SCOOTERABSTELLOGD.148437","geometry":{"type":"Point","coordinates":[16.34128509,48.20964127]},"geometry_name":"SHAPE","properties":{"OBJECTID":148437,"ABSTELL_ID":127687,"BEZIRK":8,"ADRESSE":"PFeilgasse 42","STATUS":"R","STATUS_TXT":"realisiert","ANZ_SCOOTER":18,"WEBLINK1":null,"ANL_TYP":"SC","ANL_TYP_TXT":"Scooterabstellanlage"}},{"type":"Feature","id":"SCOOTERABSTELLOGD.148438","geometry":{"type":"Point","coordinates":[16.39865471,48.25612149]},"geometry_name":"SHAPE","properties":{"OBJECTID":148438,"ABSTELL_ID":128554,"BEZIRK":21,"ADRESSE":"Franz-Jonas-Platz 12","STATUS":"R","STATUS_TXT":"realisiert","ANZ_SCOOTER":null,"WEBLINK1":null,"ANL_TYP":"BS","ANL_TYP_TXT":"Leih-E-Scooterabstellfläche"}},{"type":"Feature","id":"SCOOTERABSTELLOGD.148439","geometry":{"type":"Point","coordinates":[16.37720789,48.23946682]},"geometry_name":"SHAPE","properties":{"OBJECTID":148439,"ABSTELL_ID":128555,"BEZIRK":20,"ADRESSE":"Höchstädtplatz - FH Technikum","STATUS":"R","STATUS_TXT":"realisiert","ANZ_SCOOTER":null,"WEBLINK1":null,"ANL_TYP":"BS","ANL_TYP_TXT":"Leih-E-Scooterabstellfläche"}},{"type":"Feature","id":"SCOOTERABSTELLOGD.148440","geometry":{"type":"Point","coordinates":[16.36578948,48.1971926]},"geometry_name":"SHAPE","properties":{"OBJECTID":148440,"ABSTELL_ID":128556,"BEZIRK":4,"ADRESSE":"Margaretenstraße - Operngasse ggü. 36","STATUS":"R","STATUS_TXT":"realisiert","ANZ_SCOOTER":null,"WEBLINK1":null,"ANL_TYP":"BS","ANL_TYP_TXT":"Leih-E-Scooterabstellfläche"}},{"type":"Feature","id":"SCOOTERABSTELLOGD.148441","geometry":{"type":"Point","coordinates":[16.37871766,48.23651193]},"geometry_name":"SHAPE","properties":{"OBJECTID":148441,"ABSTELL_ID":128557,"BEZIRK":20,"ADRESSE":"Hellwagstraße 6-8","STATUS":"R","STATUS_TXT":"realisiert","ANZ_SCOOTER":null,"WEBLINK1":null,"ANL_TYP":"BS","ANL_TYP_TXT":"Leih-E-Scooterabstellfläche"}},{"type":"Feature","id":"SCOOTERABSTELLOGD.148442","geometry":{"type":"Point","coordinates":[16.38060886,48.23755415]},"geometry_name":"SHAPE","properties":{"OBJECTID":148442,"ABSTELL_ID":128558,"BEZIRK":20,"ADRESSE":"Hellwagstraße 15","STATUS":"R","STATUS_TXT":"realisiert","ANZ_SCOOTER":null,"WEBLINK1":null,"ANL_TYP":"BS","ANL_TYP_TXT":"Leih-E-Scooterabstellfläche"}},{"type":"Feature","id":"SCOOTERABSTELLOGD.148443","geometry":{"type":"Point","coordinates":[16.33373322,48.22981626]},"geometry_name":"SHAPE","properties":{"OBJECTID":148443,"ABSTELL_ID":127602,"BEZIRK":18,"ADRESSE":"Köhlergasse 9","STATUS":"R","STATUS_TXT":"realisiert","ANZ_SCOOTER":18,"WEBLINK1":null,"ANL_TYP":"SC","ANL_TYP_TXT":"Scooterabstellanlage"}},{"type":"Feature","id":"SCOOTERABSTELLOGD.148444","geometry":{"type":"Point","coordinates":[16.36000422,48.19677811]},"geometry_name":"SHAPE","properties":{"OBJECTID":148444,"ABSTELL_ID":128419,"BEZIRK":4,"ADRESSE":"Rechte Wienzeile 39","STATUS":"R","STATUS_TXT":"realisiert","ANZ_SCOOTER":null,"WEBLINK1":null,"ANL_TYP":"BS","ANL_TYP_TXT":"Leih-E-Scooterabstellfläche"}},{"type":"Feature","id":"SCOOTERABSTELLOGD.148445","geometry":{"type":"Point","coordinates":[16.35199144,48.19898551]},"geometry_name":"SHAPE","properties":{"OBJECTID":148445,"ABSTELL_ID":128154,"BEZIRK":6,"ADRESSE":"Mariahilfer Straße 61","STATUS":"R","STATUS_TXT":"realisiert","ANZ_SCOOTER":null,"WEBLINK1":null,"ANL_TYP":"BS","ANL_TYP_TXT":"Leih-E-Scooterabstellfläche"}},{"type":"Feature","id":"SCOOTERABSTELLOGD.148446","geometry":{"type":"Point","coordinates":[16.35116436,48.21314525]},"geometry_name":"SHAPE","properties":{"OBJECTID":148446,"ABSTELL_ID":128144,"BEZIRK":8,"ADRESSE":"Lange Gasse 66","STATUS":"R","STATUS_TXT":"realisiert","ANZ_SCOOTER":null,"WEBLINK1":null,"ANL_TYP":"BS","ANL_TYP_TXT":"Leih-E-Scooterabstellfläche"}},{"type":"Feature","id":"SCOOTERABSTELLOGD.148447","geometry":{"type":"Point","coordinates":[16.38067511,48.21572995]},"geometry_name":"SHAPE","properties":{"OBJECTID":148447,"ABSTELL_ID":128145,"BEZIRK":2,"ADRESSE":"Schmelzgasse 2","STATUS":"R","STATUS_TXT":"realisiert","ANZ_SCOOTER":null,"WEBLINK1":null,"ANL_TYP":"BS","ANL_TYP_TXT":"Leih-E-Scooterabstellfläche"}},{"type":"Feature","id":"SCOOTERABSTELLOGD.148448","geometry":{"type":"Point","coordinates":[16.37221605,48.21593712]},"geometry_name":"SHAPE","properties":{"OBJECTID":148448,"ABSTELL_ID":128147,"BEZIRK":1,"ADRESSE":"Franz-Josefs-Kai ggü. 49","STATUS":"R","STATUS_TXT":"realisiert","ANZ_SCOOTER":null,"WEBLINK1":null,"ANL_TYP":"BS","ANL_TYP_TXT":"Leih-E-Scooterabstellfläche"}},{"type":"Feature","id":"SCOOTERABSTELLOGD.148449","geometry":{"type":"Point","coordinates":[16.37130896,48.19720283]},"geometry_name":"SHAPE","properties":{"OBJECTID":148449,"ABSTELL_ID":128148,"BEZIRK":4,"ADRESSE":"Gußhausstraße 14","STATUS":"R","STATUS_TXT":"realisiert","ANZ_SCOOTER":null,"WEBLINK1":null,"ANL_TYP":"BS","ANL_TYP_TXT":"Leih-E-Scooterabstellfläche"}},{"type":"Feature","id":"SCOOTERABSTELLOGD.148450","geometry":{"type":"Point","coordinates":[16.32612625,48.21973667]},"geometry_name":"SHAPE","properties":{"OBJECTID":148450,"ABSTELL_ID":128149,"BEZIRK":17,"ADRESSE":"Hernalser Hauptstraße 104-106","STATUS":"R","STATUS_TXT":"realisiert","ANZ_SCOOTER":null,"WEBLINK1":null,"ANL_TYP":"BS","ANL_TYP_TXT":"Leih-E-Scooterabstellfläche"}},{"type":"Feature","id":"SCOOTERABSTELLOGD.148451","geometry":{"type":"Point","coordinates":[16.36090218,48.20219031]},"geometry_name":"SHAPE","properties":{"OBJECTID":148451,"ABSTELL_ID":128150,"BEZIRK":7,"ADRESSE":"Mariahilfer Straße - Platz der Menschenrechte 2","STATUS":"R","STATUS_TXT":"realisiert","ANZ_SCOOTER":null,"WEBLINK1":null,"ANL_TYP":"BS","ANL_TYP_TXT":"Leih-E-Scooterabstellfläche"}},{"type":"Feature","id":"SCOOTERABSTELLOGD.148452","geometry":{"type":"Point","coordinates":[16.34142729,48.19739356]},"geometry_name":"SHAPE","properties":{"OBJECTID":148452,"ABSTELL_ID":128151,"BEZIRK":7,"ADRESSE":"Kaiserstraße 10","STATUS":"R","STATUS_TXT":"realisiert","ANZ_SCOOTER":null,"WEBLINK1":null,"ANL_TYP":"BS","ANL_TYP_TXT":"Leih-E-Scooterabstellfläche"}},{"type":"Feature","id":"SCOOTERABSTELLOGD.148453","geometry":{"type":"Point","coordinates":[16.37319125,48.21071713]},"geometry_name":"SHAPE","properties":{"OBJECTID":148453,"ABSTELL_ID":128152,"BEZIRK":1,"ADRESSE":"Hoher Markt 1","STATUS":"R","STATUS_TXT":"realisiert","ANZ_SCOOTER":null,"WEBLINK1":null,"ANL_TYP":"BS","ANL_TYP_TXT":"Leih-E-Scooterabstellfläche"}},{"type":"Feature","id":"SCOOTERABSTELLOGD.148454","geometry":{"type":"Point","coordinates":[16.39008896,48.2028427]},"geometry_name":"SHAPE","properties":{"OBJECTID":148454,"ABSTELL_ID":128153,"BEZIRK":3,"ADRESSE":"Landstraßer Hauptstraße 48","STATUS":"R","STATUS_TXT":"realisiert","ANZ_SCOOTER":null,"WEBLINK1":null,"ANL_TYP":"BS","ANL_TYP_TXT":"Leih-E-Scooterabstellfläche"}},{"type":"Feature","id":"SCOOTERABSTELLOGD.148455","geometry":{"type":"Point","coordinates":[16.34244379,48.18839911]},"geometry_name":"SHAPE","properties":{"OBJECTID":148455,"ABSTELL_ID":128385,"BEZIRK":5,"ADRESSE":"Margaretengürtelbrücke ","STATUS":"R","STATUS_TXT":"realisiert","ANZ_SCOOTER":null,"WEBLINK1":null,"ANL_TYP":"BS","ANL_TYP_TXT":"Leih-E-Scooterabstellfläche"}},{"type":"Feature","id":"SCOOTERABSTELLOGD.148456","geometry":{"type":"Point","coordinates":[16.34659007,48.21219958]},"geometry_name":"SHAPE","properties":{"OBJECTID":148456,"ABSTELL_ID":128920,"BEZIRK":8,"ADRESSE":"Florianigasse 45","STATUS":"R","STATUS_TXT":"realisiert","ANZ_SCOOTER":null,"WEBLINK1":null,"ANL_TYP":"BS","ANL_TYP_TXT":"Leih-E-Scooterabstellfläche"}},{"type":"Feature","id":"SCOOTERABSTELLOGD.148459","geometry":{"type":"Point","coordinates":[16.3371195,48.23713221]},"geometry_name":"SHAPE","properties":{"OBJECTID":148459,"ABSTELL_ID":128628,"BEZIRK":19,"ADRESSE":"Peter-Jordan-Straße 62","STATUS":"R","STATUS_TXT":"realisiert","ANZ_SCOOTER":null,"WEBLINK1":null,"ANL_TYP":"BS","ANL_TYP_TXT":"Leih-E-Scooterabstellfläche"}},{"type":"Feature","id":"SCOOTERABSTELLOGD.148460","geometry":{"type":"Point","coordinates":[16.3151925,48.19002138]},"geometry_name":"SHAPE","properties":{"OBJECTID":148460,"ABSTELL_ID":128631,"BEZIRK":14,"ADRESSE":"Schloßallee - Mariahilfer Straße","STATUS":"R","STATUS_TXT":"realisiert","ANZ_SCOOTER":null,"WEBLINK1":null,"ANL_TYP":"BS","ANL_TYP_TXT":"Leih-E-Scooterabstellfläche"}},{"type":"Feature","id":"SCOOTERABSTELLOGD.148461","geometry":{"type":"Point","coordinates":[16.28686658,48.19080451]},"geometry_name":"SHAPE","properties":{"OBJECTID":148461,"ABSTELL_ID":128652,"BEZIRK":13,"ADRESSE":"Hietzinger Kai 111","STATUS":"R","STATUS_TXT":"realisiert","ANZ_SCOOTER":null,"WEBLINK1":null,"ANL_TYP":"BS","ANL_TYP_TXT":"Leih-E-Scooterabstellfläche"}},{"type":"Feature","id":"SCOOTERABSTELLOGD.148462","geometry":{"type":"Point","coordinates":[16.37954179,48.19137485]},"geometry_name":"SHAPE","properties":{"OBJECTID":148462,"ABSTELL_ID":128872,"BEZIRK":3,"ADRESSE":"Prinz-Eugen-Straße 27","STATUS":"R","STATUS_TXT":"realisiert","ANZ_SCOOTER":null,"WEBLINK1":null,"ANL_TYP":"BS","ANL_TYP_TXT":"Leih-E-Scooterabstellfläche"}},{"type":"Feature","id":"SCOOTERABSTELLOGD.148463","geometry":{"type":"Point","coordinates":[16.37773361,48.16813693]},"geometry_name":"SHAPE","properties":{"OBJECTID":148463,"ABSTELL_ID":128899,"BEZIRK":10,"ADRESSE":"Wirerstraße 15A","STATUS":"R","STATUS_TXT":"realisiert","ANZ_SCOOTER":null,"WEBLINK1":null,"ANL_TYP":"BS","ANL_TYP_TXT":"Leih-E-Scooterabstellfläche"}},{"type":"Feature","id":"SCOOTERABSTELLOGD.148465","geometry":{"type":"Point","coordinates":[16.49838302,48.22460873]},"geometry_name":"SHAPE","properties":{"OBJECTID":148465,"ABSTELL_ID":128950,"BEZIRK":22,"ADRESSE":"Maria-Tusch-Straße 6","STATUS":"R","STATUS_TXT":"realisiert","ANZ_SCOOTER":null,"WEBLINK1":null,"ANL_TYP":"BS","ANL_TYP_TXT":"Leih-E-Scooterabstellfläche"}},{"type":"Feature","id":"SCOOTERABSTELLOGD.148466","geometry":{"type":"Point","coordinates":[16.26082918,48.19777307]},"geometry_name":"SHAPE","properties":{"OBJECTID":148466,"ABSTELL_ID":128970,"BEZIRK":14,"ADRESSE":"Keißlergasse - Bahnhof Hütteldorf","STATUS":"R","STATUS_TXT":"realisiert","ANZ_SCOOTER":null,"WEBLINK1":null,"ANL_TYP":"BS","ANL_TYP_TXT":"Leih-E-Scooterabstellfläche"}},{"type":"Feature","id":"SCOOTERABSTELLOGD.148467","geometry":{"type":"Point","coordinates":[16.40844764,48.19096949]},"geometry_name":"SHAPE","properties":{"OBJECTID":148467,"ABSTELL_ID":128814,"BEZIRK":3,"ADRESSE":"Baumgasse 83","STATUS":"R","STATUS_TXT":"realisiert","ANZ_SCOOTER":null,"WEBLINK1":null,"ANL_TYP":"BS","ANL_TYP_TXT":"Leih-E-Scooterabstellfläche"}},{"type":"Feature","id":"SCOOTERABSTELLOGD.148468","geometry":{"type":"Point","coordinates":[16.41714856,48.18536382]},"geometry_name":"SHAPE","properties":{"OBJECTID":148468,"ABSTELL_ID":128815,"BEZIRK":3,"ADRESSE":"Rosa-Fischer-Gasse 2","STATUS":"R","STATUS_TXT":"realisiert","ANZ_SCOOTER":null,"WEBLINK1":null,"ANL_TYP":"BS","ANL_TYP_TXT":"Leih-E-Scooterabstellfläche"}},{"type":"Feature","id":"SCOOTERABSTELLOGD.148469","geometry":{"type":"Point","coordinates":[16.37656853,48.19939314]},"geometry_name":"SHAPE","properties":{"OBJECTID":148469,"ABSTELL_ID":128818,"BEZIRK":3,"ADRESSE":"Am Heumarkt 39","STATUS":"R","STATUS_TXT":"realisiert","ANZ_SCOOTER":null,"WEBLINK1":null,"ANL_TYP":"BS","ANL_TYP_TXT":"Leih-E-Scooterabstellfläche"}},